last_update,location_type,state,county_name,county_name_long,fips_code,lat,lon,NCHS_urbanization,total_population,confirmed,confirmed_per_100000,deaths,deaths_per_100000
2020-10-14 18:24:22 UTC,county,Alabama,Autauga,"Autauga, Alabama, US",01001,32.53952745,-86.64408227,Medium metro,55200.0,1928,3492.75,28,50.72
2020-10-14 18:24:22 UTC,county,Alabama,Baldwin,"Baldwin, Alabama, US",01003,30.72774991,-87.72207058,Small metro,208107.0,6270,3012.87,66,31.71
2020-10-14 18:24:22 UTC,county,Alabama,Barbour,"Barbour, Alabama, US",01005,31.868263,-85.3871286,Non-core,25782.0,950,3684.74,9,34.91
2020-10-14 18:24:22 UTC,county,Alabama,Bibb,"Bibb, Alabama, US",01007,32.99642064,-87.1251146,Large fringe metro,22527.0,744,3302.7,13,57.71
2020-10-14 18:24:22 UTC,county,Alabama,Blount,"Blount, Alabama, US",01009,33.98210918,-86.56790593,Large fringe metro,57645.0,1750,3035.82,23,39.9
2020-10-14 18:24:22 UTC,county,Alabama,Bullock,"Bullock, Alabama, US",01011,32.10030533,-85.71265535,Non-core,10352.0,628,6066.46,16,154.56
2020-10-14 18:24:22 UTC,county,Alabama,Butler,"Butler, Alabama, US",01013,31.75300095,-86.68057478,Non-core,20025.0,977,4878.9,40,199.75
2020-10-14 18:24:22 UTC,county,Alabama,Calhoun,"Calhoun, Alabama, US",01015,33.77483727,-85.82630386,Small metro,115098.0,3922,3407.53,57,49.52
2020-10-14 18:24:22 UTC,county,Alabama,Chambers,"Chambers, Alabama, US",01017,32.91360079,-85.39072749,Micropolitan,33826.0,1256,3713.12,43,127.12
2020-10-14 18:24:22 UTC,county,Alabama,Cherokee,"Cherokee, Alabama, US",01019,34.17805983,-85.60638968,Non-core,25853.0,687,2657.33,14,54.15
2020-10-14 18:24:22 UTC,county,Alabama,Chilton,"Chilton, Alabama, US",01021,32.85044126,-86.7173256,Large fringe metro,43930.0,1740,3960.85,31,70.57
2020-10-14 18:24:22 UTC,county,Alabama,Choctaw,"Choctaw, Alabama, US",01023,32.02227341,-88.2656443,Non-core,13075.0,377,2883.37,12,91.78
2020-10-14 18:24:22 UTC,county,Alabama,Clarke,"Clarke, Alabama, US",01025,31.68099859,-87.83548597,Non-core,24387.0,1229,5039.57,16,65.61
2020-10-14 18:24:22 UTC,county,Alabama,Clay,"Clay, Alabama, US",01027,33.26984193,-85.85836077,Non-core,13378.0,667,4985.8,11,82.22
2020-10-14 18:24:22 UTC,county,Alabama,Cleburne,"Cleburne, Alabama, US",01029,33.67679204,-85.52005899,Non-core,14938.0,483,3233.36,6,40.17
2020-10-14 18:24:22 UTC,county,Alabama,Coffee,"Coffee, Alabama, US",01031,31.39932826,-85.98901039,Micropolitan,51288.0,1568,3057.25,7,13.65
2020-10-14 18:24:22 UTC,county,Alabama,Colbert,"Colbert, Alabama, US",01033,34.69847452,-87.80168544,Small metro,54495.0,1840,3376.46,27,49.55
2020-10-14 18:24:22 UTC,county,Alabama,Conecuh,"Conecuh, Alabama, US",01035,31.43401703,-86.99320044,Non-core,12514.0,549,4387.09,12,95.89
2020-10-14 18:24:22 UTC,county,Alabama,Coosa,"Coosa, Alabama, US",01037,32.93690146,-86.24847739,Micropolitan,10855.0,190,1750.35,3,27.64
2020-10-14 18:24:22 UTC,county,Alabama,Covington,"Covington, Alabama, US",01039,31.2477854,-86.45050893,Non-core,37351.0,1585,4243.53,29,77.64
2020-10-14 18:24:22 UTC,county,Alabama,Crenshaw,"Crenshaw, Alabama, US",01041,31.72941803,-86.31593104,Non-core,13865.0,574,4139.92,30,216.37
2020-10-14 18:24:22 UTC,county,Alabama,Cullman,"Cullman, Alabama, US",01043,34.13020303,-86.86888037,Micropolitan,82313.0,2132,2590.11,21,25.51
2020-10-14 18:24:22 UTC,county,Alabama,Dale,"Dale, Alabama, US",01045,31.43037123,-85.61095742,Micropolitan,49255.0,1564,3175.31,50,101.51
2020-10-14 18:24:22 UTC,county,Alabama,Dallas,"Dallas, Alabama, US",01047,32.32688101,-87.1086671,Micropolitan,40029.0,1837,4589.17,26,64.95
2020-10-14 18:24:22 UTC,county,Alabama,DeKalb,"DeKalb, Alabama, US",01049,34.45946862,-85.80782906,Non-core,71200.0,2942,4132.02,24,33.71
2020-10-14 18:24:22 UTC,county,Alabama,Elmore,"Elmore, Alabama, US",01051,32.59785413,-86.14415284,Medium metro,81212.0,3009,3705.12,51,62.8
2020-10-14 18:24:22 UTC,county,Alabama,Escambia,"Escambia, Alabama, US",01053,31.1256789,-87.15918694,Non-core,37328.0,1687,4519.4,27,72.33
2020-10-14 18:24:22 UTC,county,Alabama,Etowah,"Etowah, Alabama, US",01055,34.04567266,-86.04051873,Small metro,102939.0,3869,3758.54,46,44.69
2020-10-14 18:24:22 UTC,county,Alabama,Fayette,"Fayette, Alabama, US",01057,33.72076938,-87.73886638,Non-core,16585.0,520,3135.36,10,60.3
2020-10-14 18:24:22 UTC,county,Alabama,Franklin,"Franklin, Alabama, US",01059,34.44235334,-87.84289505,Non-core,31542.0,1916,6074.44,30,95.11
2020-10-14 18:24:22 UTC,county,Alabama,Geneva,"Geneva, Alabama, US",01061,31.09389027,-85.83572839,Small metro,26491.0,806,3042.54,7,26.42
2020-10-14 18:24:22 UTC,county,Alabama,Greene,"Greene, Alabama, US",01063,32.85504247,-87.95684022,Non-core,8426.0,329,3904.58,15,178.02
2020-10-14 18:24:22 UTC,county,Alabama,Hale,"Hale, Alabama, US",01065,32.76039258,-87.63284988,Small metro,14887.0,714,4796.13,29,194.8
2020-10-14 18:24:22 UTC,county,Alabama,Henry,"Henry, Alabama, US",01067,31.51148016,-85.24267944,Small metro,17124.0,611,3568.09,5,29.2
2020-10-14 18:24:22 UTC,county,Alabama,Houston,"Houston, Alabama, US",01069,31.15197924,-85.29939599,Small metro,104352.0,3537,3389.49,25,23.96
2020-10-14 18:24:22 UTC,county,Alabama,Jackson,"Jackson, Alabama, US",01071,34.78144169,-85.99750489,Micropolitan,52094.0,1876,3601.18,13,24.95
2020-10-14 18:24:22 UTC,county,Alabama,Jefferson,"Jefferson, Alabama, US",01073,33.55554728,-86.895063,Large central metro,659892.0,21746,3295.39,362,54.86
2020-10-14 18:24:22 UTC,county,Alabama,Lamar,"Lamar, Alabama, US",01075,33.77995024,-88.09668032,Non-core,13933.0,426,3057.49,3,21.53
2020-10-14 18:24:22 UTC,county,Alabama,Lauderdale,"Lauderdale, Alabama, US",01077,34.90171875,-87.65624729,Small metro,92585.0,1950,2106.17,38,41.04
2020-10-14 18:24:22 UTC,county,Alabama,Lawrence,"Lawrence, Alabama, US",01079,34.52041498,-87.31069453,Small metro,33171.0,748,2254.98,28,84.41
2020-10-14 18:24:22 UTC,county,Alabama,Lee,"Lee, Alabama, US",01081,32.60154883,-85.35132246,Small metro,159287.0,6346,3984.0,64,40.18
2020-10-14 18:24:22 UTC,county,Alabama,Limestone,"Limestone, Alabama, US",01083,34.81185586,-86.98310072,Medium metro,93052.0,2574,2766.2,25,26.87
2020-10-14 18:24:22 UTC,county,Alabama,Lowndes,"Lowndes, Alabama, US",01085,32.1597283,-86.65158371,Medium metro,10236.0,685,6692.07,27,263.77
2020-10-14 18:24:22 UTC,county,Alabama,Macon,"Macon, Alabama, US",01087,32.38759944,-85.69267724,Non-core,19054.0,520,2729.09,18,94.47
2020-10-14 18:24:22 UTC,county,Alabama,Madison,"Madison, Alabama, US",01089,34.76327133,-86.55069633,Medium metro,357560.0,8678,2427.01,83,23.21
2020-10-14 18:24:22 UTC,county,Alabama,Marengo,"Marengo, Alabama, US",01091,32.24767634,-87.78796182,Non-core,19538.0,910,4657.59,21,107.48
2020-10-14 18:24:22 UTC,county,Alabama,Marion,"Marion, Alabama, US",01093,34.13697363,-87.88704173,Non-core,29965.0,1025,3420.66,29,96.78
2020-10-14 18:24:22 UTC,county,Alabama,Marshall,"Marshall, Alabama, US",01095,34.36975964,-86.30486727,Micropolitan,95145.0,4182,4395.4,46,48.35
2020-10-14 18:24:22 UTC,county,Alabama,Mobile,"Mobile, Alabama, US",01097,30.78472347,-88.20842409,Medium metro,414659.0,14056,3389.77,312,75.24
2020-10-14 18:24:22 UTC,county,Alabama,Monroe,"Monroe, Alabama, US",01099,31.56729412,-87.36995001,Non-core,21512.0,615,2858.87,9,41.84
2020-10-14 18:24:22 UTC,county,Alabama,Montgomery,"Montgomery, Alabama, US",01101,32.2206831,-86.20969272,Medium metro,226941.0,9399,4141.61,194,85.48
2020-10-14 18:24:22 UTC,county,Alabama,Morgan,"Morgan, Alabama, US",01103,34.45500589,-86.85475946,Small metro,119122.0,3757,3153.91,32,26.86
2020-10-14 18:24:22 UTC,county,Alabama,Perry,"Perry, Alabama, US",01105,32.64048341,-87.29770589,Non-core,9486.0,575,6061.56,6,63.25
2020-10-14 18:24:22 UTC,county,Alabama,Pickens,"Pickens, Alabama, US",01107,33.28094866,-88.08818103,Small metro,20298.0,747,3680.17,15,73.9
2020-10-14 18:24:22 UTC,county,Alabama,Pike,"Pike, Alabama, US",01109,31.80396383,-85.9408295,Micropolitan,33403.0,1284,3843.97,12,35.92
2020-10-14 18:24:22 UTC,county,Alabama,Randolph,"Randolph, Alabama, US",01111,33.29526734,-85.45708831,Non-core,22574.0,761,3371.13,13,57.59
2020-10-14 18:24:22 UTC,county,Alabama,Russell,"Russell, Alabama, US",01113,32.28725256,-85.18415324,Medium metro,58213.0,1868,3208.91,3,5.15
2020-10-14 18:24:22 UTC,county,Alabama,Shelby,"Shelby, Alabama, US",01117,33.26879845,-86.66232561,Large fringe metro,211261.0,6804,3220.66,59,27.93
2020-10-14 18:24:22 UTC,county,Alabama,St. Clair,"St. Clair, Alabama, US",01115,33.71902176,-86.31029372,Large fringe metro,87306.0,2647,3031.86,41,46.96
2020-10-14 18:24:22 UTC,county,Alabama,Sumter,"Sumter, Alabama, US",01119,32.59117397,-88.19916205,Non-core,12985.0,459,3534.85,21,161.73
2020-10-14 18:24:22 UTC,county,Alabama,Talladega,"Talladega, Alabama, US",01121,33.37823223,-86.16886178,Micropolitan,80565.0,2454,3045.99,33,40.96
2020-10-14 18:24:22 UTC,county,Alabama,Tallapoosa,"Tallapoosa, Alabama, US",01123,32.86698258,-85.79833053,Non-core,40636.0,1236,3041.64,85,209.17
2020-10-14 18:24:22 UTC,county,Alabama,Tuscaloosa,"Tuscaloosa, Alabama, US",01125,33.28726072,-87.52556818,Small metro,206213.0,9651,4680.11,128,62.07
2020-10-14 18:24:22 UTC,county,Alabama,Walker,"Walker, Alabama, US",01127,33.80270512,-87.30027177,Large fringe metro,64493.0,2590,4015.94,91,141.1
2020-10-14 18:24:22 UTC,county,Alabama,Washington,"Washington, Alabama, US",01129,31.4092794,-88.20689944,Non-core,16643.0,611,3671.21,12,72.1
2020-10-14 18:24:22 UTC,county,Alabama,Wilcox,"Wilcox, Alabama, US",01131,31.98773215,-87.30891118,Non-core,10809.0,554,5125.36,11,101.77
2020-10-14 18:24:22 UTC,county,Alabama,Winston,"Winston, Alabama, US",01133,34.15030532,-87.37325922,Non-core,23875.0,856,3585.34,13,54.45
2020-10-14 18:24:22 UTC,county,Alaska,Aleutians East,"Aleutians East, Alaska, US",02013,55.32222414,-161.9722021,Non-core,3425.0,5,145.99,0,0.0
2020-10-14 18:24:22 UTC,county,Alaska,Aleutians West,"Aleutians West, Alaska, US",02016,52.3233,-174.1596,Non-core,5750.0,5,86.96,0,0.0
2020-10-14 18:24:22 UTC,county,Alaska,Anchorage,"Anchorage, Alaska, US",02020,61.14998174,-149.1426986,Medium metro,296112.0,5699,1924.61,41,13.85
2020-10-14 18:24:22 UTC,county,Alaska,Bethel,"Bethel, Alaska, US",02050,60.90980451,-159.8561831,Non-core,18040.0,189,1047.67,1,5.54
2020-10-14 18:24:22 UTC,county,Alaska,Bristol Bay,"Bristol Bay, Alaska, US",02060,58.74513976,-156.701064,Non-core,890.0,10,1123.6,0,0.0
2020-10-14 18:24:22 UTC,county,Alaska,Denali,"Denali, Alaska, US",02068,63.67264044,-150.0076108,Non-core,2232.0,13,582.44,0,0.0
2020-10-14 18:24:22 UTC,county,Alaska,Dillingham,"Dillingham, Alaska, US",02070,59.79603738,-158.2381942,Non-core,4975.0,12,241.21,0,0.0
2020-10-14 18:24:22 UTC,county,Alaska,Fairbanks North Star,"Fairbanks North Star, Alaska, US",02090,64.80726247,-146.5692662,Small metro,99653.0,1626,1631.66,11,11.04
2020-10-14 18:24:22 UTC,county,Alaska,Haines,"Haines, Alaska, US",02100,59.09893571,-135.4679843,Non-core,2518.0,6,238.28,0,0.0
2020-10-14 18:24:22 UTC,county,Alaska,Juneau,"Juneau, Alaska, US",02110,58.45031811,-134.200436,Micropolitan,32330.0,335,1036.19,3,9.28
2020-10-14 18:24:22 UTC,county,Alaska,Kenai Peninsula,"Kenai Peninsula, Alaska, US",02122,60.24429722,-151.5388884,Non-core,58220.0,539,925.8,3,5.15
2020-10-14 18:24:22 UTC,county,Alaska,Ketchikan Gateway,"Ketchikan Gateway, Alaska, US",02130,55.57445008,-130.975561,Micropolitan,13804.0,54,391.19,0,0.0
2020-10-14 18:24:22 UTC,county,Alaska,Kodiak Island,"Kodiak Island, Alaska, US",02150,57.65529415,-153.7493579,Non-core,13649.0,41,300.39,0,0.0
2020-10-14 18:24:22 UTC,county,Alaska,Kusilvak,"Kusilvak, Alaska, US",02158,62.1542916,-163.3967883,Non-core,8198.0,24,292.75,0,0.0
2020-10-14 18:24:22 UTC,county,Alaska,Matanuska-Susitna,"Matanuska-Susitna, Alaska, US",02170,62.31305045,-149.5741743,Medium metro,103464.0,766,740.35,2,1.93
2020-10-14 18:24:22 UTC,county,Alaska,Nome,"Nome, Alaska, US",02180,64.90320724,-164.0353804,Non-core,9925.0,107,1078.09,0,0.0
2020-10-14 18:24:22 UTC,county,Alaska,North Slope,"North Slope, Alaska, US",02185,69.31479216,-153.4836093,Non-core,9797.0,178,1816.88,0,0.0
2020-10-14 18:24:22 UTC,county,Alaska,Northwest Arctic,"Northwest Arctic, Alaska, US",02188,67.04919196,-159.7503946,Non-core,7734.0,187,2417.9,0,0.0
2020-10-14 18:24:22 UTC,county,Alaska,Petersburg,"Petersburg, Alaska, US",02195,57.13978948,-132.9540995,Non-core,3255.0,8,245.78,1,30.72
2020-10-14 18:24:22 UTC,county,Alaska,Prince of Wales-Hyder,"Prince of Wales-Hyder, Alaska, US",02198,55.76261984,-133.0511621,Non-core,6474.0,31,478.84,0,0.0
2020-10-14 18:24:22 UTC,county,Alaska,Sitka,"Sitka, Alaska, US",02220,57.24124555,-135.3206587,Non-core,8738.0,55,629.43,0,0.0
2020-10-14 18:24:22 UTC,county,Alaska,Southeast Fairbanks,"Southeast Fairbanks, Alaska, US",02240,63.87692095,-143.2127643,Non-core,6876.0,34,494.47,0,0.0
2020-10-14 18:24:22 UTC,county,Alaska,Valdez-Cordova,"Valdez-Cordova, Alaska, US",02261,61.47502768,-144.7126799,Non-core,9301.0,92,989.14,0,0.0
2020-10-14 18:24:22 UTC,county,Alaska,Wrangell,"Wrangell, Alaska, US",02275,56.3202004,-132.0583731,Non-core,2484.0,13,523.35,0,0.0
2020-10-14 18:24:22 UTC,county,Alaska,Yakutat,"Yakutat, Alaska, US",02282,59.8909808,-140.3601451,Non-core,689.0,25,3628.45,0,0.0
2020-10-14 18:24:22 UTC,county,Alaska,Yukon-Koyukuk,"Yukon-Koyukuk, Alaska, US",02290,65.50815459,-151.3907387,Non-core,5415.0,94,1735.92,2,36.93
2020-10-14 18:24:22 UTC,county,Arizona,Apache,"Apache, Arizona, US",04001,35.39465006,-109.4892383,Non-core,71522.0,3734,5220.77,166,232.1
2020-10-14 18:24:22 UTC,county,Arizona,Cochise,"Cochise, Arizona, US",04003,31.87934684,-109.7516088,Small metro,126279.0,1986,1572.71,73,57.81
2020-10-14 18:24:22 UTC,county,Arizona,Coconino,"Coconino, Arizona, US",04005,35.83883429,-111.7707178,Small metro,140217.0,4563,3254.24,145,103.41
2020-10-14 18:24:22 UTC,county,Arizona,Gila,"Gila, Arizona, US",04007,33.80190085,-110.8132779,Micropolitan,53400.0,1597,2990.64,61,114.23
2020-10-14 18:24:22 UTC,county,Arizona,Graham,"Graham, Arizona, US",04009,32.93166885,-109.8882178,Micropolitan,37879.0,963,2542.31,26,68.64
2020-10-14 18:24:22 UTC,county,Arizona,Greenlee,"Greenlee, Arizona, US",04011,33.21498827,-109.2405279,Non-core,9504.0,66,694.44,1,10.52
2020-10-14 18:24:22 UTC,county,Arizona,La Paz,"La Paz, Arizona, US",04012,33.72854224,-113.9810029,Non-core,20701.0,575,2777.64,16,77.29
2020-10-14 18:24:22 UTC,county,Arizona,Maricopa,"Maricopa, Arizona, US",04013,33.34835867,-112.4918154,Large central metro,4253913.0,147551,3468.59,3475,81.69
2020-10-14 18:24:22 UTC,county,Arizona,Mohave,"Mohave, Arizona, US",04015,35.70471703,-113.7577902,Small metro,206064.0,4121,1999.86,228,110.65
2020-10-14 18:24:22 UTC,county,Arizona,Navajo,"Navajo, Arizona, US",04017,35.3997715,-110.3218983,Micropolitan,108705.0,5959,5481.81,236,217.1
2020-10-14 18:24:22 UTC,county,Arizona,Pima,"Pima, Arizona, US",04019,32.0971334,-111.7890033,Medium metro,1019722.0,26632,2611.69,633,62.08
2020-10-14 18:24:22 UTC,county,Arizona,Pinal,"Pinal, Arizona, US",04021,32.90525627,-111.3449483,Large fringe metro,419721.0,11152,2657.0,213,50.75
2020-10-14 18:24:22 UTC,county,Arizona,Santa Cruz,"Santa Cruz, Arizona, US",04023,31.52508998,-110.8479088,Micropolitan,46584.0,2921,6270.39,64,137.39
2020-10-14 18:24:22 UTC,county,Arizona,Yavapai,"Yavapai, Arizona, US",04025,34.59933926,-112.5538588,Small metro,224645.0,2727,1213.92,86,38.28
2020-10-14 18:24:22 UTC,county,Arizona,Yuma,"Yuma, Arizona, US",04027,32.76895712,-113.9066674,Small metro,207829.0,13088,6297.48,348,167.45
2020-10-14 18:24:22 UTC,county,Arkansas,Arkansas,"Arkansas, Arkansas, US",05001,34.29145151,-91.37277296,Non-core,18124.0,569,3139.48,11,60.69
2020-10-14 18:24:22 UTC,county,Arkansas,Ashley,"Ashley, Arkansas, US",05003,33.19153461,-91.7698471,Non-core,20537.0,484,2356.72,12,58.43
2020-10-14 18:24:22 UTC,county,Arkansas,Baxter,"Baxter, Arkansas, US",05005,36.28784385,-92.33782872,Micropolitan,41219.0,475,1152.38,5,12.13
2020-10-14 18:24:22 UTC,county,Arkansas,Benton,"Benton, Arkansas, US",05007,36.33644656,-94.25680817,Medium metro,258980.0,7288,2814.12,102,39.39
2020-10-14 18:24:22 UTC,county,Arkansas,Boone,"Boone, Arkansas, US",05009,36.3084504,-93.09374925,Micropolitan,37288.0,887,2378.78,26,69.73
2020-10-14 18:24:22 UTC,county,Arkansas,Bradley,"Bradley, Arkansas, US",05011,33.46755808,-92.15980837,Non-core,10948.0,350,3196.93,8,73.07
2020-10-14 18:24:22 UTC,county,Arkansas,Calhoun,"Calhoun, Arkansas, US",05013,33.55598792,-92.49974403,Micropolitan,5202.0,39,749.71,0,0.0
2020-10-14 18:24:22 UTC,county,Arkansas,Carroll,"Carroll, Arkansas, US",05015,36.3403856,-93.54270261,Non-core,27887.0,879,3152.01,12,43.03
2020-10-14 18:24:22 UTC,county,Arkansas,Chicot,"Chicot, Arkansas, US",05017,33.26458973,-91.29539209,Non-core,10826.0,1018,9403.29,22,203.21
2020-10-14 18:24:22 UTC,county,Arkansas,Clark,"Clark, Arkansas, US",05019,34.04613432,-93.17484713,Micropolitan,22385.0,429,1916.46,5,22.34
2020-10-14 18:24:22 UTC,county,Arkansas,Clay,"Clay, Arkansas, US",05021,36.36826212,-90.4148172,Non-core,15061.0,384,2549.63,11,73.04
2020-10-14 18:24:22 UTC,county,Arkansas,Cleburne,"Cleburne, Arkansas, US",05023,35.53864922,-92.02640019,Non-core,25230.0,395,1565.6,14,55.49
2020-10-14 18:24:22 UTC,county,Arkansas,Cleveland,"Cleveland, Arkansas, US",05025,33.89723187,-92.18537045,Small metro,8226.0,196,2382.69,12,145.88
2020-10-14 18:24:22 UTC,county,Arkansas,Columbia,"Columbia, Arkansas, US",05027,33.21230701,-93.22642793,Micropolitan,23892.0,619,2590.83,19,79.52
2020-10-14 18:24:22 UTC,county,Arkansas,Conway,"Conway, Arkansas, US",05029,35.26205537,-92.70506566,Non-core,20906.0,314,1501.96,3,14.35
2020-10-14 18:24:22 UTC,county,Arkansas,Craighead,"Craighead, Arkansas, US",05031,35.83018283,-90.63235729,Small metro,105701.0,3700,3500.44,32,30.27
2020-10-14 18:24:22 UTC,county,Arkansas,Crawford,"Crawford, Arkansas, US",05033,35.58928601,-94.2446814,Medium metro,62472.0,1758,2814.06,22,35.22
2020-10-14 18:24:22 UTC,county,Arkansas,Crittenden,"Crittenden, Arkansas, US",05035,35.21247318,-90.30839406,Large fringe metro,49013.0,2077,4237.65,51,104.05
2020-10-14 18:24:22 UTC,county,Arkansas,Cross,"Cross, Arkansas, US",05037,35.29631396,-90.77185818,Non-core,16998.0,515,3029.77,19,111.78
2020-10-14 18:24:22 UTC,county,Arkansas,Dallas,"Dallas, Arkansas, US",05039,33.97042763,-92.65167437,Non-core,7432.0,177,2381.59,5,67.28
2020-10-14 18:24:22 UTC,county,Arkansas,Desha,"Desha, Arkansas, US",05041,33.83011025,-91.25500948,Non-core,11887.0,348,2927.57,7,58.89
2020-10-14 18:24:22 UTC,county,Arkansas,Drew,"Drew, Arkansas, US",05043,33.59035001,-91.71777921,Non-core,18502.0,380,2053.83,7,37.83
2020-10-14 18:24:22 UTC,county,Arkansas,Faulkner,"Faulkner, Arkansas, US",05045,35.14719007,-92.33717519,Medium metro,122416.0,2963,2420.44,27,22.06
2020-10-14 18:24:22 UTC,county,Arkansas,Franklin,"Franklin, Arkansas, US",05047,35.51202821,-93.89299569,Non-core,17780.0,418,2350.96,2,11.25
2020-10-14 18:24:22 UTC,county,Arkansas,Fulton,"Fulton, Arkansas, US",05049,36.38177105,-91.81729127,Non-core,12139.0,229,1886.48,8,65.9
2020-10-14 18:24:22 UTC,county,Arkansas,Garland,"Garland, Arkansas, US",05051,34.57692074,-93.14921604,Small metro,98296.0,2142,2179.13,57,57.99
2020-10-14 18:24:22 UTC,county,Arkansas,Grant,"Grant, Arkansas, US",05053,34.29017991,-92.42320562,Medium metro,18086.0,313,1730.62,4,22.12
2020-10-14 18:24:22 UTC,county,Arkansas,Greene,"Greene, Arkansas, US",05055,36.1173546,-90.55832668,Micropolitan,44623.0,1122,2514.4,15,33.61
2020-10-14 18:24:22 UTC,county,Arkansas,Hempstead,"Hempstead, Arkansas, US",05057,33.73325583,-93.66935133,Non-core,22018.0,469,2130.08,5,22.71
2020-10-14 18:24:22 UTC,county,Arkansas,Hot Spring,"Hot Spring, Arkansas, US",05059,34.31709259,-92.95396325,Micropolitan,33520.0,2057,6136.63,30,89.5
2020-10-14 18:24:22 UTC,county,Arkansas,Howard,"Howard, Arkansas, US",05061,34.09007427,-93.9934871,Non-core,13389.0,524,3913.66,12,89.63
2020-10-14 18:24:22 UTC,county,Arkansas,Independence,"Independence, Arkansas, US",05063,35.74242707,-91.57001641,Micropolitan,37264.0,1311,3518.14,26,69.77
2020-10-14 18:24:22 UTC,county,Arkansas,Izard,"Izard, Arkansas, US",05065,36.09604046,-91.90847954,Non-core,13559.0,352,2596.06,1,7.38
2020-10-14 18:24:22 UTC,county,Arkansas,Jackson,"Jackson, Arkansas, US",05067,35.59802983,-91.21494602,Non-core,17225.0,548,3181.42,5,29.03
2020-10-14 18:24:22 UTC,county,Arkansas,Jefferson,"Jefferson, Arkansas, US",05069,34.26767081,-91.92619839,Small metro,70424.0,3802,5398.73,95,134.9
2020-10-14 18:24:22 UTC,county,Arkansas,Johnson,"Johnson, Arkansas, US",05071,35.56759135,-93.46036368,Non-core,26291.0,917,3487.89,9,34.23
2020-10-14 18:24:22 UTC,county,Arkansas,Lafayette,"Lafayette, Arkansas, US",05073,33.24116713,-93.60677071,Non-core,6915.0,139,2010.12,3,43.38
2020-10-14 18:24:22 UTC,county,Arkansas,Lawrence,"Lawrence, Arkansas, US",05075,36.04188196,-91.10867198,Non-core,16669.0,613,3677.49,13,77.99
2020-10-14 18:24:22 UTC,county,Arkansas,Lee,"Lee, Arkansas, US",05077,34.78498904,-90.78383866,Non-core,9398.0,1092,11619.49,18,191.53
2020-10-14 18:24:22 UTC,county,Arkansas,Lincoln,"Lincoln, Arkansas, US",05079,33.95317155,-91.74002806,Small metro,13695.0,2150,15699.16,17,124.13
2020-10-14 18:24:22 UTC,county,Arkansas,Little River,"Little River, Arkansas, US",05081,33.70375665,-94.23468591,Small metro,12417.0,400,3221.39,29,233.55
2020-10-14 18:24:22 UTC,county,Arkansas,Logan,"Logan, Arkansas, US",05083,35.21413234,-93.71951016,Non-core,21757.0,508,2334.88,2,9.19
2020-10-14 18:24:22 UTC,county,Arkansas,Lonoke,"Lonoke, Arkansas, US",05085,34.75392199,-91.88742357,Medium metro,72206.0,1449,2006.76,19,26.31
2020-10-14 18:24:22 UTC,county,Arkansas,Madison,"Madison, Arkansas, US",05087,36.01038185,-93.72524943,Medium metro,16076.0,399,2481.96,6,37.32
2020-10-14 18:24:22 UTC,county,Arkansas,Marion,"Marion, Arkansas, US",05089,36.26844485,-92.68451899,Non-core,16438.0,120,730.02,1,6.08
2020-10-14 18:24:22 UTC,county,Arkansas,Miller,"Miller, Arkansas, US",05091,33.31403423,-93.89285258,Small metro,43759.0,1048,2394.94,13,29.71
2020-10-14 18:24:22 UTC,county,Arkansas,Mississippi,"Mississippi, Arkansas, US",05093,35.76271485,-90.0519437,Micropolitan,42831.0,1897,4429.04,55,128.41
2020-10-14 18:24:22 UTC,county,Arkansas,Monroe,"Monroe, Arkansas, US",05095,34.6815935,-91.20540287,Non-core,7249.0,184,2538.28,0,0.0
2020-10-14 18:24:22 UTC,county,Arkansas,Montgomery,"Montgomery, Arkansas, US",05097,34.53704874,-93.65824478,Non-core,8993.0,176,1957.08,7,77.84
2020-10-14 18:24:22 UTC,county,Arkansas,Nevada,"Nevada, Arkansas, US",05099,33.66340119,-93.30632432,Non-core,8440.0,256,3033.18,14,165.88
2020-10-14 18:24:22 UTC,county,Arkansas,Newton,"Newton, Arkansas, US",05101,35.91947491,-93.21612969,Micropolitan,7848.0,276,3516.82,19,242.1
2020-10-14 18:24:22 UTC,county,Arkansas,Ouachita,"Ouachita, Arkansas, US",05103,33.58839816,-92.87795984,Micropolitan,24106.0,301,1248.65,7,29.04
2020-10-14 18:24:22 UTC,county,Arkansas,Perry,"Perry, Arkansas, US",05105,34.9459153,-92.94372564,Medium metro,10322.0,119,1152.88,0,0.0
2020-10-14 18:24:22 UTC,county,Arkansas,Phillips,"Phillips, Arkansas, US",05107,34.43268455,-90.84800154,Micropolitan,19034.0,632,3320.37,15,78.81
2020-10-14 18:24:22 UTC,county,Arkansas,Pike,"Pike, Arkansas, US",05109,34.16250414,-93.65789349,Non-core,10808.0,250,2313.1,3,27.76
2020-10-14 18:24:22 UTC,county,Arkansas,Poinsett,"Poinsett, Arkansas, US",05111,35.57433534,-90.66268713,Small metro,24054.0,828,3442.25,15,62.36
2020-10-14 18:24:22 UTC,county,Arkansas,Polk,"Polk, Arkansas, US",05113,34.48254879,-94.22728802,Non-core,20163.0,314,1557.31,4,19.84
2020-10-14 18:24:22 UTC,county,Arkansas,Pope,"Pope, Arkansas, US",05115,35.44871474,-93.03212219,Micropolitan,63644.0,2419,3800.83,36,56.56
2020-10-14 18:24:22 UTC,county,Arkansas,Prairie,"Prairie, Arkansas, US",05117,34.83624419,-91.55162157,Non-core,8244.0,181,2195.54,4,48.52
2020-10-14 18:24:22 UTC,county,Arkansas,Pulaski,"Pulaski, Arkansas, US",05119,34.77054088,-92.31355101,Medium metro,393463.0,10603,2694.79,186,47.27
2020-10-14 18:24:22 UTC,county,Arkansas,Randolph,"Randolph, Arkansas, US",05121,36.3415714,-91.02455531,Non-core,17603.0,545,3096.06,23,130.66
2020-10-14 18:24:22 UTC,county,Arkansas,Saline,"Saline, Arkansas, US",05125,34.64916145,-92.67583224,Medium metro,118009.0,2465,2088.82,24,20.34
2020-10-14 18:24:22 UTC,county,Arkansas,Scott,"Scott, Arkansas, US",05127,34.85588887,-94.0632176,Non-core,10442.0,129,1235.4,1,9.58
2020-10-14 18:24:22 UTC,county,Arkansas,Searcy,"Searcy, Arkansas, US",05129,35.9109364,-92.69936482,Non-core,7923.0,167,2107.79,1,12.62
2020-10-14 18:24:22 UTC,county,Arkansas,Sebastian,"Sebastian, Arkansas, US",05131,35.19605503,-94.27162713,Medium metro,127461.0,4330,3397.12,81,63.55
2020-10-14 18:24:22 UTC,county,Arkansas,Sevier,"Sevier, Arkansas, US",05133,33.99780401,-94.2424869,Non-core,17193.0,1232,7165.71,19,110.51
2020-10-14 18:24:22 UTC,county,Arkansas,Sharp,"Sharp, Arkansas, US",05135,36.16258158,-91.47819342,Non-core,17043.0,285,1672.24,9,52.81
2020-10-14 18:24:22 UTC,county,Arkansas,St. Francis,"St. Francis, Arkansas, US",05123,35.02201976,-90.74828138,Micropolitan,26294.0,1626,6183.92,8,30.43
2020-10-14 18:24:22 UTC,county,Arkansas,Stone,"Stone, Arkansas, US",05137,35.86251946,-92.15684085,Non-core,12446.0,387,3109.43,19,152.66
2020-10-14 18:24:22 UTC,county,Arkansas,Union,"Union, Arkansas, US",05139,33.16887091,-92.59746952,Micropolitan,39732.0,1024,2577.27,47,118.29
2020-10-14 18:24:22 UTC,county,Arkansas,Van Buren,"Van Buren, Arkansas, US",05141,35.58095779,-92.51295036,Non-core,16684.0,190,1138.82,3,17.98
2020-10-14 18:24:22 UTC,county,Arkansas,Washington,"Washington, Arkansas, US",05143,35.976844,-94.21800746,Medium metro,228529.0,10487,4588.91,127,55.57
2020-10-14 18:24:22 UTC,county,Arkansas,White,"White, Arkansas, US",05145,35.25688493,-91.74908296,Micropolitan,78804.0,1155,1465.66,32,40.61
2020-10-14 18:24:22 UTC,county,Arkansas,Woodruff,"Woodruff, Arkansas, US",05147,35.18902527,-91.2439489,Non-core,6660.0,74,1111.11,0,0.0
2020-10-14 18:24:22 UTC,county,Arkansas,Yell,"Yell, Arkansas, US",05149,35.00292371,-93.41171338,Micropolitan,21573.0,1294,5998.24,30,139.06
2020-10-14 18:24:22 UTC,county,California,Alameda,"Alameda, California, US",06001,37.64629437,-121.8929271,Large central metro,1643700.0,22279,1355.42,431,26.22
2020-10-14 18:24:22 UTC,county,California,Alpine,"Alpine, California, US",06003,38.59678594,-119.8223594,Non-core,1146.0,3,261.78,0,0.0
2020-10-14 18:24:22 UTC,county,California,Amador,"Amador, California, US",06005,38.44583082,-120.65696,Non-core,37829.0,305,806.26,16,42.3
2020-10-14 18:24:22 UTC,county,California,Butte,"Butte, California, US",06007,39.66727762,-121.6005252,Small metro,227075.0,2975,1310.14,48,21.14
2020-10-14 18:24:22 UTC,county,California,Calaveras,"Calaveras, California, US",06009,38.20537103,-120.552913,Non-core,45235.0,331,731.73,16,35.37
2020-10-14 18:24:22 UTC,county,California,Colusa,"Colusa, California, US",06011,39.17881957,-122.2331726,Non-core,21464.0,543,2529.82,6,27.95
2020-10-14 18:24:22 UTC,county,California,Contra Costa,"Contra Costa, California, US",06013,37.91923498,-121.9289527,Large fringe metro,1133247.0,17834,1573.71,231,20.38
2020-10-14 18:24:22 UTC,county,California,Del Norte,"Del Norte, California, US",06015,41.74228275,-123.8974063,Micropolitan,27424.0,170,619.89,1,3.65
2020-10-14 18:24:22 UTC,county,California,El Dorado,"El Dorado, California, US",06017,38.77965956,-120.5233166,Large fringe metro,186661.0,1261,675.56,4,2.14
2020-10-14 18:24:22 UTC,county,California,Fresno,"Fresno, California, US",06019,36.75733899,-119.6466953,Medium metro,978130.0,29523,3018.31,424,43.35
2020-10-14 18:24:22 UTC,county,California,Glenn,"Glenn, California, US",06021,39.59875897,-122.3938452,Non-core,27897.0,635,2276.23,3,10.75
2020-10-14 18:24:22 UTC,county,California,Humboldt,"Humboldt, California, US",06023,40.69923009,-123.876044,Micropolitan,135768.0,534,393.32,8,5.89
2020-10-14 18:24:22 UTC,county,California,Imperial,"Imperial, California, US",06025,33.0393082,-115.3669042,Small metro,180216.0,12334,6844.01,335,185.89
2020-10-14 18:24:22 UTC,county,California,Inyo,"Inyo, California, US",06027,36.51112084,-117.4111978,Non-core,18085.0,209,1155.65,15,82.94
2020-10-14 18:24:22 UTC,county,California,Kern,"Kern, California, US",06029,35.34329425,-118.7277796,Medium metro,883053.0,33089,3747.11,397,44.96
2020-10-14 18:24:22 UTC,county,California,Kings,"Kings, California, US",06031,36.07409056,-119.8159973,Small metro,150075.0,8106,5401.3,82,54.64
2020-10-14 18:24:22 UTC,county,California,Lake,"Lake, California, US",06033,39.10124298,-122.7536244,Micropolitan,64148.0,638,994.58,14,21.82
2020-10-14 18:24:22 UTC,county,California,Lassen,"Lassen, California, US",06035,40.67311306,-120.5935099,Micropolitan,31185.0,752,2411.42,1,3.21
2020-10-14 18:24:22 UTC,county,California,Los Angeles,"Los Angeles, California, US",06037,34.30828379,-118.2282411,Large central metro,10098052.0,283793,2810.37,6793,67.27
2020-10-14 18:24:22 UTC,county,California,Madera,"Madera, California, US",06039,37.21513971,-119.7665589,Small metro,155013.0,4796,3093.93,71,45.8
2020-10-14 18:24:22 UTC,county,California,Marin,"Marin, California, US",06041,38.07122463,-122.7210631,Large fringe metro,260295.0,6934,2663.9,124,47.64
2020-10-14 18:24:22 UTC,county,California,Mariposa,"Mariposa, California, US",06043,37.57978556,-119.9073334,Non-core,17540.0,77,439.0,2,11.4
2020-10-14 18:24:22 UTC,county,California,Mendocino,"Mendocino, California, US",06045,39.4381191,-123.3911313,Micropolitan,87422.0,1055,1206.79,21,24.02
2020-10-14 18:24:22 UTC,county,California,Merced,"Merced, California, US",06047,37.18922369,-120.7209035,Medium metro,269075.0,9265,3443.28,152,56.49
2020-10-14 18:24:22 UTC,county,California,Modoc,"Modoc, California, US",06049,41.58965602,-120.7244817,Non-core,8938.0,27,302.08,0,0.0
2020-10-14 18:24:22 UTC,county,California,Mono,"Mono, California, US",06051,37.93899289,-118.8872409,Non-core,14174.0,173,1220.54,2,14.11
2020-10-14 18:24:22 UTC,county,California,Monterey,"Monterey, California, US",06053,36.21862405,-121.2413397,Medium metro,433212.0,10748,2481.0,81,18.7
2020-10-14 18:24:22 UTC,county,California,Napa,"Napa, California, US",06055,38.50735751,-122.332839,Small metro,140530.0,1823,1297.23,14,9.96
2020-10-14 18:24:22 UTC,county,California,Nevada,"Nevada, California, US",06057,39.30394768,-120.7627281,Micropolitan,99092.0,573,578.25,8,8.07
2020-10-14 18:24:22 UTC,county,California,Orange,"Orange, California, US",06059,33.70147516,-117.7645998,Large central metro,3164182.0,56070,1772.02,1341,42.38
2020-10-14 18:24:22 UTC,county,California,Placer,"Placer, California, US",06061,39.06167234,-120.7240569,Large fringe metro,380077.0,3845,1011.64,51,13.42
2020-10-14 18:24:22 UTC,county,California,Plumas,"Plumas, California, US",06063,40.00355989,-120.8395236,Non-core,18699.0,53,283.44,0,0.0
2020-10-14 18:24:22 UTC,county,California,Riverside,"Riverside, California, US",06065,33.74314981,-115.9933578,Large central metro,2383286.0,62553,2624.65,1258,52.78
2020-10-14 18:24:22 UTC,county,California,Sacramento,"Sacramento, California, US",06067,38.45106826,-121.3425374,Large central metro,1510023.0,23969,1587.33,458,30.33
2020-10-14 18:24:22 UTC,county,California,San Benito,"San Benito, California, US",06069,36.60308176,-121.069975,Large fringe metro,59416.0,1388,2336.07,13,21.88
2020-10-14 18:24:22 UTC,county,California,San Bernardino,"San Bernardino, California, US",06071,34.84060306,-116.1774685,Large fringe metro,2135413.0,58936,2759.93,986,46.17
2020-10-14 18:24:22 UTC,county,California,San Diego,"San Diego, California, US",06073,33.03484597,-116.7365326,Large central metro,3302833.0,51024,1544.86,840,25.43
2020-10-14 18:24:22 UTC,county,California,San Francisco,"San Francisco, California, US",06075,37.75215114,-122.4385672,Large central metro,870044.0,11712,1346.14,123,14.14
2020-10-14 18:24:22 UTC,county,California,San Joaquin,"San Joaquin, California, US",06077,37.93433732,-121.2730061,Medium metro,732212.0,21064,2876.76,477,65.15
2020-10-14 18:24:22 UTC,county,California,San Luis Obispo,"San Luis Obispo, California, US",06079,35.38822029,-120.4039028,Medium metro,281455.0,3924,1394.18,32,11.37
2020-10-14 18:24:22 UTC,county,California,San Mateo,"San Mateo, California, US",06081,37.4228808,-122.3275546,Large fringe metro,765935.0,10622,1386.8,155,20.24
2020-10-14 18:24:22 UTC,county,California,Santa Barbara,"Santa Barbara, California, US",06083,34.65329488,-120.0188492,Medium metro,443738.0,9503,2141.58,116,26.14
2020-10-14 18:24:22 UTC,county,California,Santa Clara,"Santa Clara, California, US",06085,37.23104908,-121.6970462,Large central metro,1922200.0,22741,1183.07,363,18.88
2020-10-14 18:24:22 UTC,county,California,Santa Cruz,"Santa Cruz, California, US",06087,37.05580291,-122.0066524,Medium metro,273765.0,2618,956.29,20,7.31
2020-10-14 18:24:22 UTC,county,California,Shasta,"Shasta, California, US",06089,40.76391419,-122.0396884,Small metro,179085.0,1597,891.76,25,13.96
2020-10-14 18:24:22 UTC,county,California,Sierra,"Sierra, California, US",06091,39.57713498,-120.5200701,Non-core,2930.0,6,204.78,0,0.0
2020-10-14 18:24:22 UTC,county,California,Siskiyou,"Siskiyou, California, US",06093,41.59198861,-122.5407434,Non-core,43540.0,182,418.01,0,0.0
2020-10-14 18:24:22 UTC,county,California,Solano,"Solano, California, US",06095,38.26827353,-121.9357113,Medium metro,438530.0,6876,1567.97,74,16.87
2020-10-14 18:24:22 UTC,county,California,Sonoma,"Sonoma, California, US",06097,38.52746429,-122.8862506,Medium metro,501317.0,8558,1707.1,128,25.53
2020-10-14 18:24:22 UTC,county,California,Stanislaus,"Stanislaus, California, US",06099,37.55862499,-120.9970722,Medium metro,539301.0,17087,3168.36,387,71.76
2020-10-14 18:24:22 UTC,county,California,Sutter,"Sutter, California, US",06101,39.03417539,-121.6945899,Small metro,95872.0,1785,1861.86,12,12.52
2020-10-14 18:24:22 UTC,county,California,Tehama,"Tehama, California, US",06103,40.12570935,-122.2370171,Micropolitan,63373.0,708,1117.2,8,12.62
2020-10-14 18:24:22 UTC,county,California,Trinity,"Trinity, California, US",06105,40.6491767,-123.114713,Non-core,12862.0,21,163.27,0,0.0
2020-10-14 18:24:22 UTC,county,California,Tulare,"Tulare, California, US",06107,36.22026558,-118.8020203,Medium metro,460477.0,16976,3686.61,269,58.42
2020-10-14 18:24:22 UTC,county,California,Tuolumne,"Tuolumne, California, US",06109,38.02644018,-119.9525093,Micropolitan,53932.0,242,448.71,4,7.42
2020-10-14 18:24:22 UTC,county,California,Ventura,"Ventura, California, US",06111,34.44465746,-119.0910613,Medium metro,848112.0,13617,1605.57,158,18.63
2020-10-14 18:24:22 UTC,county,California,Yolo,"Yolo, California, US",06113,38.68278902,-121.9018288,Large fringe metro,214977.0,2986,1388.99,56,26.05
2020-10-14 18:24:22 UTC,county,California,Yuba,"Yuba, California, US",06115,39.26255932,-121.3535644,Small metro,75493.0,1239,1641.21,10,13.25
2020-10-14 18:24:22 UTC,county,Colorado,Adams,"Adams, Colorado, US",08001,39.87432092,-104.3362578,Large fringe metro,497115.0,10962,2205.12,243,48.88
2020-10-14 18:24:22 UTC,county,Colorado,Alamosa,"Alamosa, Colorado, US",08003,37.57250606,-105.7885451,Non-core,16444.0,265,1611.53,9,54.73
2020-10-14 18:24:22 UTC,county,Colorado,Arapahoe,"Arapahoe, Colorado, US",08005,39.64977461,-104.3353617,Large fringe metro,636671.0,10572,1660.51,375,58.9
2020-10-14 18:24:22 UTC,county,Colorado,Archuleta,"Archuleta, Colorado, US",08007,37.19474156,-107.0476867,Non-core,12908.0,58,449.33,0,0.0
2020-10-14 18:24:22 UTC,county,Colorado,Baca,"Baca, Colorado, US",08009,37.31940883,-102.5603223,Non-core,3563.0,19,533.26,0,0.0
2020-10-14 18:24:22 UTC,county,Colorado,Bent,"Bent, Colorado, US",08011,37.95474293,-103.0720195,Non-core,5809.0,11,189.36,0,0.0
2020-10-14 18:24:22 UTC,county,Colorado,Boulder,"Boulder, Colorado, US",08013,40.09313619,-105.3546767,Medium metro,321030.0,4825,1502.97,82,25.54
2020-10-14 18:24:22 UTC,county,Colorado,Broomfield,"Broomfield, Colorado, US",08014,39.95998787,-105.0566324,Large fringe metro,66120.0,749,1132.79,37,55.96
2020-10-14 18:24:22 UTC,county,Colorado,Chaffee,"Chaffee, Colorado, US",08015,38.74745778,-106.1926573,Non-core,19164.0,358,1868.09,20,104.36
2020-10-14 18:24:22 UTC,county,Colorado,Cheyenne,"Cheyenne, Colorado, US",08017,38.82777431,-102.6032558,Non-core,2039.0,14,686.61,0,0.0
2020-10-14 18:24:22 UTC,county,Colorado,Clear Creek,"Clear Creek, Colorado, US",08019,39.68864463,-105.6463118,Large fringe metro,9379.0,59,629.06,1,10.66
2020-10-14 18:24:22 UTC,county,Colorado,Conejos,"Conejos, Colorado, US",08021,37.201606,-106.1917488,Non-core,8142.0,42,515.84,0,0.0
2020-10-14 18:24:22 UTC,county,Colorado,Costilla,"Costilla, Colorado, US",08023,37.27732493,-105.4276548,Non-core,3687.0,33,895.04,1,27.12
2020-10-14 18:24:22 UTC,county,Colorado,Crowley,"Crowley, Colorado, US",08025,38.32608609,-103.7844965,Non-core,5630.0,77,1367.67,1,17.76
2020-10-14 18:24:22 UTC,county,Colorado,Custer,"Custer, Colorado, US",08027,38.10883162,-105.3683478,Non-core,4640.0,19,409.48,0,0.0
2020-10-14 18:24:22 UTC,county,Colorado,Delta,"Delta, Colorado, US",08029,38.86246243,-107.8631342,Non-core,30346.0,194,639.29,4,13.18
2020-10-14 18:24:22 UTC,county,Colorado,Denver,"Denver, Colorado, US",08031,39.76018276,-104.8725695,Large central metro,693417.0,15103,2178.05,439,63.31
2020-10-14 18:24:22 UTC,county,Colorado,Dolores,"Dolores, Colorado, US",08033,37.75208676,-108.5211585,Non-core,1841.0,3,162.95,0,0.0
2020-10-14 18:24:22 UTC,county,Colorado,Douglas,"Douglas, Colorado, US",08035,39.33133796,-104.930001,Large fringe metro,328614.0,3100,943.36,63,19.17
2020-10-14 18:24:22 UTC,county,Colorado,Eagle,"Eagle, Colorado, US",08037,39.62754308,-106.6933637,Micropolitan,54357.0,1325,2437.59,10,18.4
2020-10-14 18:24:22 UTC,county,Colorado,El Paso,"El Paso, Colorado, US",08041,38.83240149,-104.5251411,Medium metro,688153.0,7845,1140.01,186,27.03
2020-10-14 18:24:22 UTC,county,Colorado,Elbert,"Elbert, Colorado, US",08039,39.28656773,-104.1358721,Large fringe metro,25162.0,175,695.49,3,11.92
2020-10-14 18:24:22 UTC,county,Colorado,Fremont,"Fremont, Colorado, US",08043,38.47362326,-105.4399667,Micropolitan,47002.0,273,580.83,1,2.13
2020-10-14 18:24:22 UTC,county,Colorado,Garfield,"Garfield, Colorado, US",08045,39.59921777,-107.902708,Micropolitan,58538.0,1022,1745.87,5,8.54
2020-10-14 18:24:22 UTC,county,Colorado,Gilpin,"Gilpin, Colorado, US",08047,39.85646523,-105.5252597,Large fringe metro,5924.0,20,337.61,0,0.0
2020-10-14 18:24:22 UTC,county,Colorado,Grand,"Grand, Colorado, US",08049,40.10603347,-106.1178042,Non-core,15066.0,116,769.95,1,6.64
2020-10-14 18:24:22 UTC,county,Colorado,Gunnison,"Gunnison, Colorado, US",08051,38.66611652,-107.0320729,Non-core,16537.0,297,1795.97,7,42.33
2020-10-14 18:24:22 UTC,county,Colorado,Hinsdale,"Hinsdale, Colorado, US",08053,37.82247444,-107.3004345,Non-core,878.0,3,341.69,0,0.0
2020-10-14 18:24:22 UTC,county,Colorado,Huerfano,"Huerfano, Colorado, US",08055,37.68473101,-104.9612585,Non-core,6583.0,27,410.15,2,30.38
2020-10-14 18:24:22 UTC,county,Colorado,Jackson,"Jackson, Colorado, US",08057,40.6659387,-106.3408905,Non-core,1296.0,9,694.44,0,0.0
2020-10-14 18:24:22 UTC,county,Colorado,Jefferson,"Jefferson, Colorado, US",08059,39.58635604,-105.2517692,Large fringe metro,570427.0,6754,1184.03,295,51.72
2020-10-14 18:24:22 UTC,county,Colorado,Kiowa,"Kiowa, Colorado, US",08061,38.43260896,-102.7392145,Non-core,1449.0,1,69.01,0,0.0
2020-10-14 18:24:22 UTC,county,Colorado,Kit Carson,"Kit Carson, Colorado, US",08063,39.30497777,-102.6022199,Non-core,7635.0,98,1283.56,3,39.29
2020-10-14 18:24:22 UTC,county,Colorado,La Plata,"La Plata, Colorado, US",08067,37.28632032,-107.8429014,Micropolitan,55101.0,301,546.27,2,3.63
2020-10-14 18:24:22 UTC,county,Colorado,Lake,"Lake, Colorado, US",08065,39.20278823,-106.3555697,Non-core,7585.0,110,1450.23,0,0.0
2020-10-14 18:24:22 UTC,county,Colorado,Larimer,"Larimer, Colorado, US",08069,40.66671597,-105.4625784,Medium metro,338161.0,3217,951.32,55,16.26
2020-10-14 18:24:22 UTC,county,Colorado,Las Animas,"Las Animas, Colorado, US",08071,37.3153406,-104.0376458,Non-core,14179.0,28,197.48,0,0.0
2020-10-14 18:24:22 UTC,county,Colorado,Lincoln,"Lincoln, Colorado, US",08073,38.98749519,-103.5136649,Non-core,5548.0,24,432.59,0,0.0
2020-10-14 18:24:22 UTC,county,Colorado,Logan,"Logan, Colorado, US",08075,40.7249637,-103.110817,Micropolitan,21689.0,1025,4725.9,9,41.5
2020-10-14 18:24:22 UTC,county,Colorado,Mesa,"Mesa, Colorado, US",08077,39.01787888,-108.469799,Small metro,149998.0,823,548.67,7,4.67
2020-10-14 18:24:22 UTC,county,Colorado,Mineral,"Mineral, Colorado, US",08079,37.66954283,-106.9281698,Non-core,823.0,20,2430.13,0,0.0
2020-10-14 18:24:22 UTC,county,Colorado,Moffat,"Moffat, Colorado, US",08081,40.61810999,-108.2070876,Micropolitan,13060.0,48,367.53,1,7.66
2020-10-14 18:24:22 UTC,county,Colorado,Montezuma,"Montezuma, Colorado, US",08083,37.33859579,-108.5958857,Non-core,25909.0,172,663.86,5,19.3
2020-10-14 18:24:22 UTC,county,Colorado,Montrose,"Montrose, Colorado, US",08085,38.40214114,-108.2639022,Micropolitan,41268.0,404,978.97,13,31.5
2020-10-14 18:24:22 UTC,county,Colorado,Morgan,"Morgan, Colorado, US",08087,40.2627981,-103.8093302,Micropolitan,28257.0,789,2792.23,48,169.87
2020-10-14 18:24:22 UTC,county,Colorado,Otero,"Otero, Colorado, US",08089,37.9014485,-103.7173385,Non-core,18325.0,113,616.64,6,32.74
2020-10-14 18:24:22 UTC,county,Colorado,Ouray,"Ouray, Colorado, US",08091,38.14717457,-107.7675136,Non-core,4722.0,32,677.68,1,21.18
2020-10-14 18:24:22 UTC,county,Colorado,Park,"Park, Colorado, US",08093,39.120926,-105.7182065,Large fringe metro,17392.0,64,367.99,1,5.75
2020-10-14 18:24:22 UTC,county,Colorado,Phillips,"Phillips, Colorado, US",08095,40.59414277,-102.3577703,Non-core,4318.0,34,787.4,0,0.0
2020-10-14 18:24:22 UTC,county,Colorado,Pitkin,"Pitkin, Colorado, US",08097,39.21720112,-106.9310027,Micropolitan,17909.0,248,1384.78,2,11.17
2020-10-14 18:24:22 UTC,county,Colorado,Prowers,"Prowers, Colorado, US",08099,37.95544985,-102.3926052,Non-core,12052.0,98,813.14,0,0.0
2020-10-14 18:24:22 UTC,county,Colorado,Pueblo,"Pueblo, Colorado, US",08101,38.17359144,-104.5127437,Small metro,164685.0,1406,853.75,38,23.07
2020-10-14 18:24:22 UTC,county,Colorado,Rio Blanco,"Rio Blanco, Colorado, US",08103,39.97913541,-108.2179009,Non-core,6465.0,25,386.7,0,0.0
2020-10-14 18:24:22 UTC,county,Colorado,Rio Grande,"Rio Grande, Colorado, US",08105,37.5836865,-106.3847838,Non-core,11351.0,109,960.27,2,17.62
2020-10-14 18:24:22 UTC,county,Colorado,Routt,"Routt, Colorado, US",08107,40.48596505,-106.9905548,Micropolitan,24874.0,171,687.46,8,32.16
2020-10-14 18:24:22 UTC,county,Colorado,Saguache,"Saguache, Colorado, US",08109,38.08054629,-106.282466,Non-core,6468.0,116,1793.44,2,30.92
2020-10-14 18:24:22 UTC,county,Colorado,San Juan,"San Juan, Colorado, US",08111,37.76248981,-107.6763289,Non-core,544.0,6,1102.94,0,0.0
2020-10-14 18:24:22 UTC,county,Colorado,San Miguel,"San Miguel, Colorado, US",08113,38.00450883,-108.4020725,Non-core,7968.0,97,1217.37,0,0.0
2020-10-14 18:24:22 UTC,county,Colorado,Sedgwick,"Sedgwick, Colorado, US",08115,40.87595412,-102.3519227,Non-core,2350.0,16,680.85,1,42.55
2020-10-14 18:24:22 UTC,county,Colorado,Summit,"Summit, Colorado, US",08117,39.63803232,-106.1150762,Micropolitan,30429.0,525,1725.33,4,13.15
2020-10-14 18:24:22 UTC,county,Colorado,Teller,"Teller, Colorado, US",08119,38.88133511,-105.1614893,Medium metro,24113.0,184,763.07,4,16.59
2020-10-14 18:24:22 UTC,county,Colorado,Washington,"Washington, Colorado, US",08121,39.97015535,-103.202587,Non-core,4840.0,74,1528.93,0,0.0
2020-10-14 18:24:22 UTC,county,Colorado,Weld,"Weld, Colorado, US",08123,40.55499405,-104.3929621,Medium metro,295123.0,5197,1760.96,155,52.52
2020-10-14 18:24:22 UTC,county,Colorado,Yuma,"Yuma, Colorado, US",08125,40.00346839,-102.4258673,Non-core,10069.0,157,1559.24,1,9.93
2020-10-14 18:24:22 UTC,county,Connecticut,Fairfield,"Fairfield, Connecticut, US",09001,41.26809896,-73.3881171,Medium metro,944348.0,21104,2234.77,1426,151.0
2020-10-14 18:24:22 UTC,county,Connecticut,Hartford,"Hartford, Connecticut, US",09003,41.80283011,-72.73103891,Large central metro,894730.0,15949,1782.55,1443,161.28
2020-10-14 18:24:22 UTC,county,Connecticut,Litchfield,"Litchfield, Connecticut, US",09005,41.7937534,-73.2451475,Micropolitan,183031.0,1952,1066.49,141,77.04
2020-10-14 18:24:22 UTC,county,Connecticut,Middlesex,"Middlesex, Connecticut, US",09007,41.45949668,-72.53714864,Large fringe metro,163368.0,1714,1049.17,193,118.14
2020-10-14 18:24:22 UTC,county,Connecticut,New Haven,"New Haven, Connecticut, US",09009,41.4080325,-72.93620426,Medium metro,859339.0,15223,1771.48,1119,130.22
2020-10-14 18:24:22 UTC,county,Connecticut,New London,"New London, Connecticut, US",09011,41.48896435,-72.10430976,Medium metro,268881.0,2905,1080.4,127,47.23
2020-10-14 18:24:22 UTC,county,Connecticut,Tolland,"Tolland, Connecticut, US",09013,41.85853803,-72.3308481,Large fringe metro,151269.0,1534,1014.09,67,44.29
2020-10-14 18:24:22 UTC,county,Connecticut,Windham,"Windham, Connecticut, US",09015,41.82972709,-71.98182316,Medium metro,116538.0,1176,1009.11,17,14.59
2020-10-14 18:24:22 UTC,county,Delaware,Kent,"Kent, Delaware, US",10001,39.08646628,-75.56884914,Small metro,174822.0,3259,1864.18,119,68.07
2020-10-14 18:24:22 UTC,county,Delaware,New Castle,"New Castle, Delaware, US",10003,39.57992638,-75.64054974,Large fringe metro,555133.0,11787,2123.27,329,59.27
2020-10-14 18:24:22 UTC,county,Delaware,Sussex,"Sussex, Delaware, US",10005,38.66143781,-75.39031349,Medium metro,219540.0,7328,3337.89,212,96.57
2020-10-14 18:24:22 UTC,county,District of Columbia,District of Columbia,"District of Columbia, District of Columbia ,US",11001,38.90417773,-77.01655992,Large central metro,684498.0,16068,2347.41,637,93.06
2020-10-14 18:24:22 UTC,county,Florida,Alachua,"Alachua, Florida, US",12001,29.67866525,-82.35928158,Medium metro,263148.0,9133,3470.67,70,26.6
2020-10-14 18:24:22 UTC,county,Florida,Baker,"Baker, Florida, US",12003,30.33060121,-82.28467476,Large fringe metro,27785.0,1642,5909.66,16,57.59
2020-10-14 18:24:22 UTC,county,Florida,Bay,"Bay, Florida, US",12005,30.26548745,-85.62122584,Small metro,182482.0,6366,3488.56,122,66.86
2020-10-14 18:24:22 UTC,county,Florida,Bradford,"Bradford, Florida, US",12007,29.95079741,-82.16611613,Non-core,26979.0,1187,4399.72,11,40.77
2020-10-14 18:24:22 UTC,county,Florida,Brevard,"Brevard, Florida, US",12009,28.29409504,-80.73091022,Medium metro,576808.0,10110,1752.75,331,57.38
2020-10-14 18:24:22 UTC,county,Florida,Broward,"Broward, Florida, US",12011,26.15184651,-80.48725556,Large fringe metro,1909151.0,79876,4183.85,1484,77.73
2020-10-14 18:24:22 UTC,county,Florida,Calhoun,"Calhoun, Florida, US",12013,30.40666734,-85.19394153,Non-core,14444.0,653,4520.91,14,96.93
2020-10-14 18:24:22 UTC,county,Florida,Charlotte,"Charlotte, Florida, US",12015,26.90131002,-81.92949121,Small metro,176954.0,3287,1857.54,150,84.77
2020-10-14 18:24:22 UTC,county,Florida,Citrus,"Citrus, Florida, US",12017,28.84804315,-82.47614748,Small metro,143087.0,2983,2084.75,124,86.66
2020-10-14 18:24:22 UTC,county,Florida,Clay,"Clay, Florida, US",12019,29.98319144,-81.85609986,Large fringe metro,207291.0,5556,2680.29,111,53.55
2020-10-14 18:24:22 UTC,county,Florida,Collier,"Collier, Florida, US",12021,26.11091986,-81.34687065,Medium metro,363922.0,13382,3677.16,239,65.67
2020-10-14 18:24:22 UTC,county,Florida,Columbia,"Columbia, Florida, US",12023,30.22509788,-82.62160164,Micropolitan,69105.0,4034,5837.49,68,98.4
2020-10-14 18:24:22 UTC,county,Florida,DeSoto,"DeSoto, Florida, US",12027,27.18677893,-81.80941373,Micropolitan,36399.0,1609,4420.45,27,74.18
2020-10-14 18:24:22 UTC,county,Florida,Dixie,"Dixie, Florida, US",12029,29.60631086,-83.15724673,Non-core,16437.0,860,5232.1,11,66.92
2020-10-14 18:24:22 UTC,county,Florida,Duval,"Duval, Florida, US",12031,30.33225875,-81.66976468,Large central metro,924229.0,32311,3496.0,494,53.45
2020-10-14 18:24:22 UTC,county,Florida,Escambia,"Escambia, Florida, US",12033,30.67652764,-87.37284571,Medium metro,311522.0,12737,4088.64,264,84.75
2020-10-14 18:24:22 UTC,county,Florida,Flagler,"Flagler, Florida, US",12035,29.45933576,-81.31508595,Medium metro,107139.0,1892,1765.93,33,30.8
2020-10-14 18:24:22 UTC,county,Florida,Franklin,"Franklin, Florida, US",12037,29.83791238,-84.82731662,Non-core,11736.0,676,5760.05,4,34.08
2020-10-14 18:24:22 UTC,county,Florida,Gadsden,"Gadsden, Florida, US",12039,30.57796289,-84.61915825,Medium metro,46017.0,2992,6501.94,51,110.83
2020-10-14 18:24:22 UTC,county,Florida,Gilchrist,"Gilchrist, Florida, US",12041,29.72856978,-82.79880657,Medium metro,17615.0,531,3014.48,17,96.51
2020-10-14 18:24:22 UTC,county,Florida,Glades,"Glades, Florida, US",12043,26.95635849,-81.18996211,Non-core,13363.0,581,4347.83,6,44.9
2020-10-14 18:24:22 UTC,county,Florida,Gulf,"Gulf, Florida, US",12045,29.93543004,-85.2427099,Small metro,16055.0,911,5674.24,15,93.43
2020-10-14 18:24:22 UTC,county,Florida,Hamilton,"Hamilton, Florida, US",12047,30.49673973,-82.94998918,Non-core,14269.0,889,6230.29,9,63.07
2020-10-14 18:24:22 UTC,county,Florida,Hardee,"Hardee, Florida, US",12049,27.49293939,-81.80956574,Micropolitan,27228.0,1479,5431.91,11,40.4
2020-10-14 18:24:22 UTC,county,Florida,Hendry,"Hendry, Florida, US",12051,26.55386945,-81.16469006,Micropolitan,40127.0,2128,5303.16,43,107.16
2020-10-14 18:24:22 UTC,county,Florida,Hernando,"Hernando, Florida, US",12053,28.55364461,-82.42700204,Large fringe metro,182696.0,3324,1819.42,149,81.56
2020-10-14 18:24:22 UTC,county,Florida,Highlands,"Highlands, Florida, US",12055,27.34254618,-81.34071957,Small metro,102101.0,2398,2348.65,100,97.94
2020-10-14 18:24:22 UTC,county,Florida,Hillsborough,"Hillsborough, Florida, US",12057,27.9276559,-82.32013172,Large central metro,1378883.0,44652,3238.27,720,52.22
2020-10-14 18:24:22 UTC,county,Florida,Holmes,"Holmes, Florida, US",12059,30.86747479,-85.81319222,Non-core,19430.0,803,4132.78,10,51.47
2020-10-14 18:24:22 UTC,county,Florida,Indian River,"Indian River, Florida, US",12061,27.69308961,-80.60556721,Small metro,150984.0,3458,2290.31,119,78.82
2020-10-14 18:24:22 UTC,county,Florida,Jackson,"Jackson, Florida, US",12063,30.7954597,-85.21500423,Non-core,48472.0,2986,6160.26,83,171.23
2020-10-14 18:24:22 UTC,county,Florida,Jefferson,"Jefferson, Florida, US",12065,30.43669112,-83.89442308,Medium metro,14105.0,603,4275.08,9,63.81
2020-10-14 18:24:22 UTC,county,Florida,Lafayette,"Lafayette, Florida, US",12067,29.98484137,-83.18166636,Non-core,8744.0,1253,14329.83,15,171.55
2020-10-14 18:24:22 UTC,county,Florida,Lake,"Lake, Florida, US",12069,28.76202069,-81.7125123,Large fringe metro,335362.0,8012,2389.06,211,62.92
2020-10-14 18:24:22 UTC,county,Florida,Lee,"Lee, Florida, US",12071,26.58410348,-81.88399313,Medium metro,718679.0,21489,2990.07,485,67.48
2020-10-14 18:24:22 UTC,county,Florida,Leon,"Leon, Florida, US",12073,30.45955727,-84.27491114,Medium metro,288102.0,11413,3961.44,93,32.28
2020-10-14 18:24:22 UTC,county,Florida,Levy,"Levy, Florida, US",12075,29.31829741,-82.74007147,Non-core,39961.0,1089,2725.16,10,25.02
2020-10-14 18:24:22 UTC,county,Florida,Liberty,"Liberty, Florida, US",12077,30.23766008,-84.8829258,Non-core,8365.0,520,6216.38,10,119.55
2020-10-14 18:24:22 UTC,county,Florida,Madison,"Madison, Florida, US",12079,30.44396917,-83.47398594,Non-core,18474.0,1047,5667.42,24,129.91
2020-10-14 18:24:22 UTC,county,Florida,Manatee,"Manatee, Florida, US",12081,27.47196942,-82.31831044,Medium metro,373853.0,12270,3282.04,310,82.92
2020-10-14 18:24:22 UTC,county,Florida,Marion,"Marion, Florida, US",12083,29.21227113,-82.05803627,Medium metro,348371.0,10258,2944.56,330,94.73
2020-10-14 18:24:22 UTC,county,Florida,Martin,"Martin, Florida, US",12085,27.0772071,-80.43109784,Medium metro,157581.0,5102,3237.7,151,95.82
2020-10-14 18:24:22 UTC,county,Florida,Miami-Dade,"Miami-Dade, Florida, US",12086,25.6112362,-80.55170587,Large central metro,2715516.0,176271,6491.25,3485,128.34
2020-10-14 18:24:22 UTC,county,Florida,Monroe,"Monroe, Florida, US",12087,25.20904673,-81.07812416,Micropolitan,76325.0,1979,2592.86,24,31.44
2020-10-14 18:24:22 UTC,county,Florida,Nassau,"Nassau, Florida, US",12089,30.61037141,-81.80297522,Large fringe metro,80578.0,2297,2850.65,50,62.05
2020-10-14 18:24:22 UTC,county,Florida,Okaloosa,"Okaloosa, Florida, US",12091,30.69143028,-86.59267105,Small metro,200737.0,5491,2735.42,125,62.27
2020-10-14 18:24:22 UTC,county,Florida,Okeechobee,"Okeechobee, Florida, US",12093,27.3863362,-80.88944347,Micropolitan,40572.0,1650,4066.84,35,86.27
2020-10-14 18:24:22 UTC,county,Florida,Orange,"Orange, Florida, US",12095,28.51367621,-81.31799498,Large central metro,1321194.0,42572,3222.24,523,39.59
2020-10-14 18:24:22 UTC,county,Florida,Osceola,"Osceola, Florida, US",12097,28.06312234,-81.14882926,Large fringe metro,338619.0,13250,3912.95,174,51.39
2020-10-14 18:24:22 UTC,county,Florida,Palm Beach,"Palm Beach, Florida, US",12099,26.64676272,-80.46536002,Large fringe metro,1446277.0,48337,3342.17,1465,101.29
2020-10-14 18:24:22 UTC,county,Florida,Pasco,"Pasco, Florida, US",12101,28.30810945,-82.40227529,Large fringe metro,510593.0,9989,1956.35,219,42.89
2020-10-14 18:24:22 UTC,county,Florida,Pinellas,"Pinellas, Florida, US",12103,27.93130349,-82.72239666,Large central metro,957875.0,23510,2454.39,788,82.27
2020-10-14 18:24:22 UTC,county,Florida,Polk,"Polk, Florida, US",12105,27.95027105,-81.69732947,Medium metro,668671.0,21354,3193.5,563,84.2
2020-10-14 18:24:22 UTC,county,Florida,Putnam,"Putnam, Florida, US",12107,29.60779729,-81.74230285,Micropolitan,72766.0,2229,3063.24,46,63.22
2020-10-14 18:24:22 UTC,county,Florida,Santa Rosa,"Santa Rosa, Florida, US",12113,30.6934145,-87.02458128,Medium metro,170442.0,5616,3294.96,84,49.28
2020-10-14 18:24:22 UTC,county,Florida,Sarasota,"Sarasota, Florida, US",12115,27.18546175,-82.33174248,Medium metro,412144.0,8786,2131.78,291,70.61
2020-10-14 18:24:22 UTC,county,Florida,Seminole,"Seminole, Florida, US",12117,28.7158582,-81.24060348,Large fringe metro,455086.0,9524,2092.79,231,50.76
2020-10-14 18:24:22 UTC,county,Florida,St. Johns,"St. Johns, Florida, US",12109,29.90096506,-81.43589967,Large fringe metro,235503.0,5814,2468.76,77,32.7
2020-10-14 18:24:22 UTC,county,Florida,St. Lucie,"St. Lucie, Florida, US",12111,27.37763908,-80.47106649,Medium metro,305591.0,8443,2762.84,310,101.44
2020-10-14 18:24:22 UTC,county,Florida,Sumter,"Sumter, Florida, US",12119,28.70181754,-82.0794267,Small metro,120999.0,2700,2231.42,77,63.64
2020-10-14 18:24:22 UTC,county,Florida,Suwannee,"Suwannee, Florida, US",12121,30.19746066,-82.9909967,Non-core,43924.0,2861,6513.52,75,170.75
2020-10-14 18:24:22 UTC,county,Florida,Taylor,"Taylor, Florida, US",12123,30.04848048,-83.60445406,Non-core,22098.0,1406,6362.57,14,63.35
2020-10-14 18:24:22 UTC,county,Florida,Union,"Union, Florida, US",12125,30.04412971,-82.37497443,Non-core,15239.0,1041,6831.16,25,164.05
2020-10-14 18:24:22 UTC,county,Florida,Volusia,"Volusia, Florida, US",12127,29.05858895,-81.18263252,Medium metro,527634.0,11649,2207.78,296,56.1
2020-10-14 18:24:22 UTC,county,Florida,Wakulla,"Wakulla, Florida, US",12129,30.16548905,-84.39895211,Medium metro,31877.0,1209,3792.7,11,34.51
2020-10-14 18:24:22 UTC,county,Florida,Walton,"Walton, Florida, US",12131,30.64204028,-86.16935664,Small metro,65858.0,2142,3252.45,29,44.03
2020-10-14 18:24:22 UTC,county,Florida,Washington,"Washington, Florida, US",12133,30.61359259,-85.66002461,Non-core,24566.0,1124,4575.43,24,97.7
2020-10-14 18:24:22 UTC,county,Georgia,Appling,"Appling, Georgia, US",13001,31.74847232,-82.28909114,Non-core,18454.0,1108,6004.12,34,184.24
2020-10-14 18:24:22 UTC,county,Georgia,Atkinson,"Atkinson, Georgia, US",13003,31.29633502,-82.87545866,Non-core,8265.0,465,5626.13,4,48.4
2020-10-14 18:24:22 UTC,county,Georgia,Bacon,"Bacon, Georgia, US",13005,31.55456473,-82.45936528,Non-core,11228.0,617,5495.19,14,124.69
2020-10-14 18:24:22 UTC,county,Georgia,Baker,"Baker, Georgia, US",13007,31.32669878,-84.44218806,Small metro,3189.0,85,2665.41,6,188.15
2020-10-14 18:24:22 UTC,county,Georgia,Baldwin,"Baldwin, Georgia, US",13009,33.06882326,-83.24701748,Micropolitan,45286.0,2202,4862.43,62,136.91
2020-10-14 18:24:22 UTC,county,Georgia,Banks,"Banks, Georgia, US",13011,34.35607081,-83.49644388,Non-core,18510.0,528,2852.51,8,43.22
2020-10-14 18:24:22 UTC,county,Georgia,Barrow,"Barrow, Georgia, US",13013,33.99148694,-83.71436292,Large fringe metro,76887.0,2407,3130.57,47,61.13
2020-10-14 18:24:22 UTC,county,Georgia,Bartow,"Bartow, Georgia, US",13015,34.23732119,-84.83887523,Large fringe metro,103620.0,3178,3066.98,91,87.82
2020-10-14 18:24:22 UTC,county,Georgia,Ben Hill,"Ben Hill, Georgia, US",13017,31.76095874,-83.22145359,Micropolitan,17154.0,835,4867.67,29,169.06
2020-10-14 18:24:22 UTC,county,Georgia,Berrien,"Berrien, Georgia, US",13019,31.27590016,-83.2252992,Non-core,19025.0,472,2480.95,12,63.07
2020-10-14 18:24:22 UTC,county,Georgia,Bibb,"Bibb, Georgia, US",13021,32.80904227,-83.70489165,Small metro,153490.0,6335,4127.3,188,122.48
2020-10-14 18:24:22 UTC,county,Georgia,Bleckley,"Bleckley, Georgia, US",13023,32.43829035,-83.33035166,Non-core,12775.0,467,3655.58,21,164.38
2020-10-14 18:24:22 UTC,county,Georgia,Brantley,"Brantley, Georgia, US",13025,31.19576557,-81.97743999,Small metro,18561.0,374,2014.98,11,59.26
2020-10-14 18:24:22 UTC,county,Georgia,Brooks,"Brooks, Georgia, US",13027,30.83922642,-83.58303423,Small metro,15622.0,534,3418.26,26,166.43
2020-10-14 18:24:22 UTC,county,Georgia,Bryan,"Bryan, Georgia, US",13029,32.00979311,-81.44002948,Medium metro,35885.0,1226,3416.47,13,36.23
2020-10-14 18:24:22 UTC,county,Georgia,Bulloch,"Bulloch, Georgia, US",13031,32.39577406,-81.74811421,Micropolitan,74782.0,2966,3966.2,32,42.79
2020-10-14 18:24:22 UTC,county,Georgia,Burke,"Burke, Georgia, US",13033,33.05917989,-81.99928721,Medium metro,22550.0,859,3809.31,11,48.78
2020-10-14 18:24:22 UTC,county,Georgia,Butts,"Butts, Georgia, US",13035,33.2830945,-83.9543504,Large fringe metro,23750.0,722,3040.0,43,181.05
2020-10-14 18:24:22 UTC,county,Georgia,Calhoun,"Calhoun, Georgia, US",13037,31.53169785,-84.62725131,Non-core,6428.0,256,3982.58,9,140.01
2020-10-14 18:24:22 UTC,county,Georgia,Camden,"Camden, Georgia, US",13039,30.92951916,-81.66601818,Micropolitan,52714.0,1359,2578.06,16,30.35
2020-10-14 18:24:22 UTC,county,Georgia,Candler,"Candler, Georgia, US",13043,32.40209349,-82.07702563,Non-core,10827.0,505,4664.27,23,212.43
2020-10-14 18:24:22 UTC,county,Georgia,Carroll,"Carroll, Georgia, US",13045,33.58138199,-85.07976677,Large fringe metro,116022.0,3032,2613.3,74,63.78
2020-10-14 18:24:22 UTC,county,Georgia,Catoosa,"Catoosa, Georgia, US",13047,34.89872298,-85.13757014,Medium metro,66299.0,1292,1948.75,19,28.66
2020-10-14 18:24:22 UTC,county,Georgia,Charlton,"Charlton, Georgia, US",13049,30.78371028,-82.13951596,Non-core,12983.0,645,4968.04,9,69.32
2020-10-14 18:24:22 UTC,county,Georgia,Chatham,"Chatham, Georgia, US",13051,32.00043026,-81.12489526,Medium metro,287049.0,8927,3109.92,177,61.66
2020-10-14 18:24:22 UTC,county,Georgia,Chattahoochee,"Chattahoochee, Georgia, US",13053,32.34341231,-84.78809239,Medium metro,10767.0,1706,15844.71,1,9.29
2020-10-14 18:24:22 UTC,county,Georgia,Chattooga,"Chattooga, Georgia, US",13055,34.47197698,-85.34535662,Micropolitan,24817.0,844,3400.89,26,104.77
2020-10-14 18:24:22 UTC,county,Georgia,Cherokee,"Cherokee, Georgia, US",13057,34.24393976,-84.47431861,Large fringe metro,241910.0,6518,2694.39,97,40.1
2020-10-14 18:24:22 UTC,county,Georgia,Clarke,"Clarke, Georgia, US",13059,33.95436462,-83.37124007,Small metro,124602.0,5399,4333.0,46,36.92
2020-10-14 18:24:22 UTC,county,Georgia,Clay,"Clay, Georgia, US",13061,31.62221166,-84.97713865,Non-core,3001.0,122,4065.31,3,99.97
2020-10-14 18:24:22 UTC,county,Georgia,Clayton,"Clayton, Georgia, US",13063,33.54187245,-84.35594188,Large fringe metro,278666.0,7569,2716.15,170,61.0
2020-10-14 18:24:22 UTC,county,Georgia,Clinch,"Clinch, Georgia, US",13065,30.91395822,-82.70432472,Non-core,6743.0,409,6065.55,11,163.13
2020-10-14 18:24:22 UTC,county,Georgia,Cobb,"Cobb, Georgia, US",13067,33.94243204,-84.5761255,Large fringe metro,745057.0,20679,2775.49,442,59.32
2020-10-14 18:24:22 UTC,county,Georgia,Coffee,"Coffee, Georgia, US",13069,31.54892966,-82.8549206,Micropolitan,42961.0,2151,5006.87,57,132.68
2020-10-14 18:24:22 UTC,county,Georgia,Colquitt,"Colquitt, Georgia, US",13071,31.18810588,-83.7677946,Micropolitan,45606.0,1994,4372.23,37,81.13
2020-10-14 18:24:22 UTC,county,Georgia,Columbia,"Columbia, Georgia, US",13073,33.54534185,-82.263524,Medium metro,147295.0,4015,2725.82,62,42.09
2020-10-14 18:24:22 UTC,county,Georgia,Cook,"Cook, Georgia, US",13075,31.16068491,-83.42947229,Non-core,17184.0,564,3282.12,15,87.29
2020-10-14 18:24:22 UTC,county,Georgia,Coweta,"Coweta, Georgia, US",13077,33.35334302,-84.76129976,Large fringe metro,140516.0,2775,1974.86,58,41.28
2020-10-14 18:24:22 UTC,county,Georgia,Crawford,"Crawford, Georgia, US",13079,32.71391813,-83.98061238,Small metro,12344.0,183,1482.5,6,48.61
2020-10-14 18:24:22 UTC,county,Georgia,Crisp,"Crisp, Georgia, US",13081,31.92289565,-83.76811843,Micropolitan,22846.0,610,2670.05,19,83.17
2020-10-14 18:24:22 UTC,county,Georgia,Dade,"Dade, Georgia, US",13083,34.8549167,-85.50490424,Medium metro,16227.0,306,1885.75,5,30.81
2020-10-14 18:24:22 UTC,county,Georgia,Dawson,"Dawson, Georgia, US",13085,34.44244079,-84.16964071,Large fringe metro,23861.0,860,3604.21,9,37.72
2020-10-14 18:24:22 UTC,county,Georgia,DeKalb,"DeKalb, Georgia, US",13089,33.76944049,-84.22396017,Large fringe metro,743187.0,19797,2663.8,382,51.4
2020-10-14 18:24:22 UTC,county,Georgia,Decatur,"Decatur, Georgia, US",13087,30.87967778,-84.57619536,Micropolitan,26833.0,1237,4610.0,34,126.71
2020-10-14 18:24:22 UTC,county,Georgia,Dodge,"Dodge, Georgia, US",13091,32.17265114,-83.16948926,Non-core,20919.0,467,2232.42,13,62.14
2020-10-14 18:24:22 UTC,county,Georgia,Dooly,"Dooly, Georgia, US",13093,32.15630737,-83.79746561,Non-core,13905.0,351,2524.27,14,100.68
2020-10-14 18:24:22 UTC,county,Georgia,Dougherty,"Dougherty, Georgia, US",13095,31.53328528,-84.21722377,Small metro,91049.0,3227,3544.25,188,206.48
2020-10-14 18:24:22 UTC,county,Georgia,Douglas,"Douglas, Georgia, US",13097,33.70291126,-84.77026156,Large fringe metro,141840.0,3864,2724.2,71,50.06
2020-10-14 18:24:22 UTC,county,Georgia,Early,"Early, Georgia, US",13099,31.32155345,-84.90255207,Non-core,10348.0,519,5015.46,33,318.9
2020-10-14 18:24:22 UTC,county,Georgia,Echols,"Echols, Georgia, US",13101,30.71101099,-82.89687287,Small metro,3994.0,243,6084.13,2,50.08
2020-10-14 18:24:22 UTC,county,Georgia,Effingham,"Effingham, Georgia, US",13103,32.36616021,-81.34280942,Medium metro,58689.0,1613,2748.39,28,47.71
2020-10-14 18:24:22 UTC,county,Georgia,Elbert,"Elbert, Georgia, US",13105,34.11302332,-82.83936148,Non-core,19212.0,724,3768.48,8,41.64
2020-10-14 18:24:22 UTC,county,Georgia,Emanuel,"Emanuel, Georgia, US",13107,32.59221302,-82.30239915,Non-core,22499.0,1137,5053.56,34,151.12
2020-10-14 18:24:22 UTC,county,Georgia,Evans,"Evans, Georgia, US",13109,32.15328841,-81.8870105,Non-core,10727.0,448,4176.38,6,55.93
2020-10-14 18:24:22 UTC,county,Georgia,Fannin,"Fannin, Georgia, US",13111,34.86430205,-84.316964,Non-core,24925.0,755,3029.09,28,112.34
2020-10-14 18:24:22 UTC,county,Georgia,Fayette,"Fayette, Georgia, US",13113,33.41357794,-84.49089434,Large fringe metro,111369.0,1979,1776.98,52,46.69
2020-10-14 18:24:22 UTC,county,Georgia,Floyd,"Floyd, Georgia, US",13115,34.26268279,-85.21577392,Small metro,96824.0,3461,3574.53,49,50.61
2020-10-14 18:24:22 UTC,county,Georgia,Forsyth,"Forsyth, Georgia, US",13117,34.22604035,-84.1231513,Large fringe metro,219880.0,4400,2001.09,48,21.83
2020-10-14 18:24:22 UTC,county,Georgia,Franklin,"Franklin, Georgia, US",13119,34.37525597,-83.23159927,Non-core,22514.0,814,3615.53,16,71.07
2020-10-14 18:24:22 UTC,county,Georgia,Fulton,"Fulton, Georgia, US",13121,33.79216944,-84.46319413,Large central metro,1021902.0,29274,2864.66,594,58.13
2020-10-14 18:24:22 UTC,county,Georgia,Gilmer,"Gilmer, Georgia, US",13123,34.69316688,-84.45802506,Non-core,29922.0,927,3098.05,15,50.13
2020-10-14 18:24:22 UTC,county,Georgia,Glascock,"Glascock, Georgia, US",13125,33.22879932,-82.61297636,Non-core,3009.0,40,1329.35,2,66.47
2020-10-14 18:24:22 UTC,county,Georgia,Glynn,"Glynn, Georgia, US",13127,31.23279254,-81.53811412,Small metro,83974.0,3572,4253.7,98,116.7
2020-10-14 18:24:22 UTC,county,Georgia,Gordon,"Gordon, Georgia, US",13129,34.50487351,-84.87296253,Micropolitan,56790.0,2016,3549.92,39,68.67
2020-10-14 18:24:22 UTC,county,Georgia,Grady,"Grady, Georgia, US",13131,30.87454847,-84.23418364,Non-core,24926.0,831,3333.87,23,92.27
2020-10-14 18:24:22 UTC,county,Georgia,Greene,"Greene, Georgia, US",13133,33.5769205,-83.17139104,Non-core,16976.0,545,3210.41,24,141.38
2020-10-14 18:24:22 UTC,county,Georgia,Gwinnett,"Gwinnett, Georgia, US",13135,33.96044201,-84.02137802,Large fringe metro,902298.0,29015,3215.68,425,47.1
2020-10-14 18:24:22 UTC,county,Georgia,Habersham,"Habersham, Georgia, US",13137,34.63331566,-83.53094677,Micropolitan,44289.0,1783,4025.83,72,162.57
2020-10-14 18:24:22 UTC,county,Georgia,Hall,"Hall, Georgia, US",13139,34.32207823,-83.81896936,Small metro,195961.0,10028,5117.34,164,83.69
2020-10-14 18:24:22 UTC,county,Georgia,Hancock,"Hancock, Georgia, US",13141,33.2721566,-82.99766919,Micropolitan,8535.0,405,4745.17,44,515.52
2020-10-14 18:24:22 UTC,county,Georgia,Haralson,"Haralson, Georgia, US",13143,33.79602175,-85.21005667,Large fringe metro,28956.0,555,1916.7,9,31.08
2020-10-14 18:24:22 UTC,county,Georgia,Harris,"Harris, Georgia, US",13145,32.73709786,-84.90538572,Medium metro,33590.0,823,2450.13,25,74.43
2020-10-14 18:24:22 UTC,county,Georgia,Hart,"Hart, Georgia, US",13147,34.34626973,-82.96567682,Non-core,25631.0,547,2134.13,16,62.42
2020-10-14 18:24:22 UTC,county,Georgia,Heard,"Heard, Georgia, US",13149,33.29686567,-85.12886832,Large fringe metro,11677.0,204,1747.02,6,51.38
2020-10-14 18:24:22 UTC,county,Georgia,Henry,"Henry, Georgia, US",13151,33.4533428,-84.1481466,Large fringe metro,221307.0,5699,2575.16,106,47.9
2020-10-14 18:24:22 UTC,county,Georgia,Houston,"Houston, Georgia, US",13153,32.45802497,-83.66879087,Small metro,151682.0,3323,2190.77,86,56.7
2020-10-14 18:24:22 UTC,county,Georgia,Irwin,"Irwin, Georgia, US",13155,31.60213036,-83.27501387,Non-core,9268.0,342,3690.12,6,64.74
2020-10-14 18:24:22 UTC,county,Georgia,Jackson,"Jackson, Georgia, US",13157,34.13794553,-83.56814788,Micropolitan,65755.0,2165,3292.53,38,57.79
2020-10-14 18:24:22 UTC,county,Georgia,Jasper,"Jasper, Georgia, US",13159,33.31535543,-83.68844964,Large fringe metro,13784.0,238,1726.64,3,21.76
2020-10-14 18:24:22 UTC,county,Georgia,Jeff Davis,"Jeff Davis, Georgia, US",13161,31.80405727,-82.6372487,Non-core,14991.0,754,5029.68,22,146.75
2020-10-14 18:24:22 UTC,county,Georgia,Jefferson,"Jefferson, Georgia, US",13163,33.05867328,-82.41609057,Non-core,15772.0,827,5243.47,31,196.55
2020-10-14 18:24:22 UTC,county,Georgia,Jenkins,"Jenkins, Georgia, US",13165,32.79248718,-81.96040187,Non-core,8827.0,457,5177.3,31,351.2
2020-10-14 18:24:22 UTC,county,Georgia,Johnson,"Johnson, Georgia, US",13167,32.70211082,-82.66166794,Micropolitan,9730.0,433,4450.15,22,226.1
2020-10-14 18:24:22 UTC,county,Georgia,Jones,"Jones, Georgia, US",13169,33.02512137,-83.56019163,Small metro,28548.0,611,2140.26,13,45.54
2020-10-14 18:24:22 UTC,county,Georgia,Lamar,"Lamar, Georgia, US",13171,33.07841647,-84.14263877,Large fringe metro,18513.0,390,2106.63,19,102.63
2020-10-14 18:24:22 UTC,county,Georgia,Lanier,"Lanier, Georgia, US",13173,31.0382857,-83.06472457,Small metro,10366.0,308,2971.25,7,67.53
2020-10-14 18:24:22 UTC,county,Georgia,Laurens,"Laurens, Georgia, US",13175,32.46325233,-82.92221316,Micropolitan,47418.0,1852,3905.69,82,172.93
2020-10-14 18:24:22 UTC,county,Georgia,Lee,"Lee, Georgia, US",13177,31.7793306,-84.14324253,Small metro,29348.0,728,2480.58,26,88.59
2020-10-14 18:24:22 UTC,county,Georgia,Liberty,"Liberty, Georgia, US",13179,31.82588896,-81.49251135,Small metro,62108.0,1169,1882.21,24,38.64
2020-10-14 18:24:22 UTC,county,Georgia,Lincoln,"Lincoln, Georgia, US",13181,33.79201475,-82.45024131,Medium metro,7799.0,220,2820.87,7,89.76
2020-10-14 18:24:22 UTC,county,Georgia,Long,"Long, Georgia, US",13183,31.75218791,-81.74952375,Small metro,18156.0,266,1465.08,4,22.03
2020-10-14 18:24:22 UTC,county,Georgia,Lowndes,"Lowndes, Georgia, US",13185,30.83568832,-83.27056716,Small metro,114582.0,4151,3622.73,86,75.06
2020-10-14 18:24:22 UTC,county,Georgia,Lumpkin,"Lumpkin, Georgia, US",13187,34.57286511,-84.00425681,Non-core,31951.0,975,3051.55,14,43.82
2020-10-14 18:24:22 UTC,county,Georgia,Macon,"Macon, Georgia, US",13193,32.35207048,-84.04234127,Non-core,13480.0,239,1773.0,10,74.18
2020-10-14 18:24:22 UTC,county,Georgia,Madison,"Madison, Georgia, US",13195,34.12920917,-83.21218732,Small metro,28900.0,739,2557.09,10,34.6
2020-10-14 18:24:22 UTC,county,Georgia,Marion,"Marion, Georgia, US",13197,32.3483402,-84.52733571,Medium metro,8484.0,195,2298.44,9,106.08
2020-10-14 18:24:22 UTC,county,Georgia,McDuffie,"McDuffie, Georgia, US",13189,33.47851918,-82.48252774,Medium metro,21498.0,644,2995.63,14,65.12
2020-10-14 18:24:22 UTC,county,Georgia,McIntosh,"McIntosh, Georgia, US",13191,31.49683595,-81.40163426,Small metro,14120.0,299,2117.56,7,49.58
2020-10-14 18:24:22 UTC,county,Georgia,Meriwether,"Meriwether, Georgia, US",13199,33.04163534,-84.68859732,Large fringe metro,21113.0,565,2676.08,14,66.31
2020-10-14 18:24:22 UTC,county,Georgia,Miller,"Miller, Georgia, US",13201,31.16568912,-84.73151117,Non-core,5836.0,295,5054.83,2,34.27
2020-10-14 18:24:22 UTC,county,Georgia,Mitchell,"Mitchell, Georgia, US",13205,31.22483255,-84.19381821,Non-core,22432.0,841,3749.11,46,205.06
2020-10-14 18:24:22 UTC,county,Georgia,Monroe,"Monroe, Georgia, US",13207,33.014289,-83.92097166,Small metro,27010.0,730,2702.7,54,199.93
2020-10-14 18:24:22 UTC,county,Georgia,Montgomery,"Montgomery, Georgia, US",13209,32.17201038,-82.53527476,Micropolitan,9036.0,345,3818.06,7,77.47
2020-10-14 18:24:22 UTC,county,Georgia,Morgan,"Morgan, Georgia, US",13211,33.59232073,-83.49129491,Large fringe metro,18235.0,505,2769.4,4,21.94
2020-10-14 18:24:22 UTC,county,Georgia,Murray,"Murray, Georgia, US",13213,34.78897608,-84.74993177,Small metro,39557.0,896,2265.09,8,20.22
2020-10-14 18:24:22 UTC,county,Georgia,Muscogee,"Muscogee, Georgia, US",13215,32.50931999,-84.87142262,Medium metro,196670.0,6218,3161.64,173,87.96
2020-10-14 18:24:22 UTC,county,Georgia,Newton,"Newton, Georgia, US",13217,33.55514538,-83.8454714,Large fringe metro,106497.0,2718,2552.18,91,85.45
2020-10-14 18:24:22 UTC,county,Georgia,Oconee,"Oconee, Georgia, US",13219,33.83749973,-83.43679568,Small metro,37017.0,806,2177.38,27,72.94
2020-10-14 18:24:22 UTC,county,Georgia,Oglethorpe,"Oglethorpe, Georgia, US",13221,33.8786296,-83.08278123,Small metro,14784.0,378,2556.82,11,74.4
2020-10-14 18:24:22 UTC,county,Georgia,Paulding,"Paulding, Georgia, US",13223,33.91969522,-84.86848792,Large fringe metro,155840.0,2957,1897.46,59,37.86
2020-10-14 18:24:22 UTC,county,Georgia,Peach,"Peach, Georgia, US",13225,32.56934316,-83.82937,Small metro,26966.0,709,2629.24,24,89.0
2020-10-14 18:24:22 UTC,county,Georgia,Pickens,"Pickens, Georgia, US",13227,34.46589159,-84.46406611,Large fringe metro,30832.0,661,2143.88,9,29.19
2020-10-14 18:24:22 UTC,county,Georgia,Pierce,"Pierce, Georgia, US",13229,31.35928155,-82.21598442,Micropolitan,19164.0,635,3313.5,23,120.02
2020-10-14 18:24:22 UTC,county,Georgia,Pike,"Pike, Georgia, US",13231,33.09310242,-84.38790389,Large fringe metro,18082.0,367,2029.64,11,60.83
2020-10-14 18:24:22 UTC,county,Georgia,Polk,"Polk, Georgia, US",13233,34.00267074,-85.18677781,Micropolitan,41621.0,1564,3757.72,21,50.46
2020-10-14 18:24:22 UTC,county,Georgia,Pulaski,"Pulaski, Georgia, US",13235,32.23334561,-83.4754996,Small metro,11295.0,320,2833.11,22,194.78
2020-10-14 18:24:22 UTC,county,Georgia,Putnam,"Putnam, Georgia, US",13237,33.32056115,-83.37552891,Non-core,21503.0,752,3497.19,27,125.56
2020-10-14 18:24:22 UTC,county,Georgia,Quitman,"Quitman, Georgia, US",13239,31.86728114,-85.01773177,Non-core,2276.0,38,1669.6,1,43.94
2020-10-14 18:24:22 UTC,county,Georgia,Rabun,"Rabun, Georgia, US",13241,34.88389445,-83.40304637,Non-core,16457.0,402,2442.73,11,66.84
2020-10-14 18:24:22 UTC,county,Georgia,Randolph,"Randolph, Georgia, US",13243,31.76622818,-84.75732369,Non-core,7087.0,338,4769.3,29,409.2
2020-10-14 18:24:22 UTC,county,Georgia,Richmond,"Richmond, Georgia, US",13245,33.35777107,-82.07026432,Medium metro,201463.0,7549,3747.09,173,85.87
2020-10-14 18:24:22 UTC,county,Georgia,Rockdale,"Rockdale, Georgia, US",13247,33.65145002,-84.02202167,Large fringe metro,89011.0,1965,2207.59,40,44.94
2020-10-14 18:24:22 UTC,county,Georgia,Schley,"Schley, Georgia, US",13249,32.2654021,-84.31258912,Micropolitan,5211.0,107,2053.35,2,38.38
2020-10-14 18:24:22 UTC,county,Georgia,Screven,"Screven, Georgia, US",13251,32.74976524,-81.60779441,Non-core,13990.0,435,3109.36,11,78.63
2020-10-14 18:24:22 UTC,county,Georgia,Seminole,"Seminole, Georgia, US",13253,30.93464824,-84.86823924,Non-core,8437.0,374,4432.86,10,118.53
2020-10-14 18:24:22 UTC,county,Georgia,Spalding,"Spalding, Georgia, US",13255,33.26310031,-84.28013991,Large fringe metro,64719.0,1432,2212.64,62,95.8
2020-10-14 18:24:22 UTC,county,Georgia,Stephens,"Stephens, Georgia, US",13257,34.55151201,-83.29405315,Micropolitan,25676.0,1216,4735.94,41,159.68
2020-10-14 18:24:22 UTC,county,Georgia,Stewart,"Stewart, Georgia, US",13259,32.07996777,-84.83208037,Non-core,6042.0,524,8672.62,16,264.81
2020-10-14 18:24:22 UTC,county,Georgia,Sumter,"Sumter, Georgia, US",13261,32.03650571,-84.19821492,Micropolitan,30352.0,949,3126.65,65,214.15
2020-10-14 18:24:22 UTC,county,Georgia,Talbot,"Talbot, Georgia, US",13263,32.69642758,-84.53351366,Non-core,6378.0,167,2618.38,7,109.75
2020-10-14 18:24:22 UTC,county,Georgia,Taliaferro,"Taliaferro, Georgia, US",13265,33.56543317,-82.88136816,Non-core,1665.0,25,1501.5,0,0.0
2020-10-14 18:24:22 UTC,county,Georgia,Tattnall,"Tattnall, Georgia, US",13267,32.04785085,-82.05539188,Non-core,25353.0,872,3439.44,11,43.39
2020-10-14 18:24:22 UTC,county,Georgia,Taylor,"Taylor, Georgia, US",13269,32.55792548,-84.25077141,Non-core,8193.0,222,2709.63,12,146.47
2020-10-14 18:24:22 UTC,county,Georgia,Telfair,"Telfair, Georgia, US",13271,31.92829517,-82.93491155,Non-core,16115.0,411,2550.42,22,136.52
2020-10-14 18:24:22 UTC,county,Georgia,Terrell,"Terrell, Georgia, US",13273,31.77527543,-84.44069698,Small metro,8859.0,335,3781.47,32,361.21
2020-10-14 18:24:22 UTC,county,Georgia,Thomas,"Thomas, Georgia, US",13275,30.86392347,-83.91847289,Micropolitan,44730.0,1550,3465.24,68,152.02
2020-10-14 18:24:22 UTC,county,Georgia,Tift,"Tift, Georgia, US",13277,31.45743864,-83.5236119,Micropolitan,40510.0,1881,4643.3,59,145.64
2020-10-14 18:24:22 UTC,county,Georgia,Toombs,"Toombs, Georgia, US",13279,32.12059861,-82.32957247,Micropolitan,27048.0,1417,5238.83,54,199.65
2020-10-14 18:24:22 UTC,county,Georgia,Towns,"Towns, Georgia, US",13281,34.91369188,-83.7410746,Non-core,11417.0,392,3433.48,10,87.59
2020-10-14 18:24:22 UTC,county,Georgia,Treutlen,"Treutlen, Georgia, US",13283,32.40422134,-82.56904553,Non-core,6777.0,281,4146.38,11,162.31
2020-10-14 18:24:22 UTC,county,Georgia,Troup,"Troup, Georgia, US",13285,33.03349196,-85.02812115,Micropolitan,69774.0,2913,4174.91,103,147.62
2020-10-14 18:24:22 UTC,county,Georgia,Turner,"Turner, Georgia, US",13287,31.71612656,-83.62069378,Non-core,7962.0,327,4107.01,24,301.43
2020-10-14 18:24:22 UTC,county,Georgia,Twiggs,"Twiggs, Georgia, US",13289,32.67435595,-83.43078662,Small metro,8284.0,205,2474.65,9,108.64
2020-10-14 18:24:22 UTC,county,Georgia,Union,"Union, Georgia, US",13291,34.82995757,-83.98967069,Non-core,22775.0,844,3705.82,23,100.99
2020-10-14 18:24:22 UTC,county,Georgia,Upson,"Upson, Georgia, US",13293,32.87920671,-84.30024826,Micropolitan,26216.0,823,3139.3,67,255.57
2020-10-14 18:24:22 UTC,county,Georgia,Walker,"Walker, Georgia, US",13295,34.73376362,-85.30165174,Medium metro,68824.0,1679,2439.56,41,59.57
2020-10-14 18:24:22 UTC,county,Georgia,Walton,"Walton, Georgia, US",13297,33.78017694,-83.73552314,Large fringe metro,90132.0,1984,2201.22,63,69.9
2020-10-14 18:24:22 UTC,county,Georgia,Ware,"Ware, Georgia, US",13299,31.05449097,-82.42224148,Micropolitan,35599.0,1604,4505.74,61,171.35
2020-10-14 18:24:22 UTC,county,Georgia,Warren,"Warren, Georgia, US",13301,33.41146451,-82.67795848,Non-core,5346.0,162,3030.3,5,93.53
2020-10-14 18:24:22 UTC,county,Georgia,Washington,"Washington, Georgia, US",13303,32.96711864,-82.79357039,Non-core,20461.0,710,3470.02,11,53.76
2020-10-14 18:24:22 UTC,county,Georgia,Wayne,"Wayne, Georgia, US",13305,31.5521809,-81.91894878,Micropolitan,29767.0,1185,3980.92,29,97.42
2020-10-14 18:24:22 UTC,county,Georgia,Webster,"Webster, Georgia, US",13307,32.04066113,-84.54742852,Non-core,2613.0,44,1683.89,2,76.54
2020-10-14 18:24:22 UTC,county,Georgia,Wheeler,"Wheeler, Georgia, US",13309,32.12009104,-82.72574721,Non-core,7939.0,356,4484.19,13,163.75
2020-10-14 18:24:22 UTC,county,Georgia,White,"White, Georgia, US",13311,34.64624278,-83.74905525,Non-core,28928.0,961,3322.04,22,76.05
2020-10-14 18:24:22 UTC,county,Georgia,Whitfield,"Whitfield, Georgia, US",13313,34.80987459,-84.96093476,Small metro,103849.0,4915,4732.83,62,59.7
2020-10-14 18:24:22 UTC,county,Georgia,Wilcox,"Wilcox, Georgia, US",13315,31.97496928,-83.43438555,Non-core,8846.0,250,2826.14,25,282.61
2020-10-14 18:24:22 UTC,county,Georgia,Wilkes,"Wilkes, Georgia, US",13317,33.78290391,-82.74286107,Non-core,9884.0,272,2751.92,6,60.7
2020-10-14 18:24:22 UTC,county,Georgia,Wilkinson,"Wilkinson, Georgia, US",13319,32.80291082,-83.17140684,Non-core,9078.0,356,3921.57,18,198.28
2020-10-14 18:24:22 UTC,county,Georgia,Worth,"Worth, Georgia, US",13321,31.55162306,-83.85090513,Small metro,20656.0,576,2788.54,32,154.92
2020-10-14 18:24:22 UTC,county,Hawaii,Hawaii,"Hawaii, Hawaii, US",15001,19.60121157,-155.5210167,Micropolitan,197658.0,974,492.77,15,7.59
2020-10-14 18:24:22 UTC,county,Hawaii,Honolulu,"Honolulu, Hawaii, US",15003,21.45803166,-157.9712182,Medium metro,987638.0,12097,1224.84,144,14.58
2020-10-14 18:24:22 UTC,county,Hawaii,Kauai,"Kauai, Hawaii, US",15007,22.03935037,-159.5966786,Micropolitan,71377.0,59,82.66,0,0.0
2020-10-14 18:24:22 UTC,county,Hawaii,Maui,"Maui, Hawaii, US",15009,20.86399628,-156.5689097,Small metro,165281.0,408,246.85,13,7.87
2020-10-14 18:24:22 UTC,county,Idaho,Ada,"Ada, Idaho, US",16001,43.4526575,-116.2415516,Medium metro,446052.0,14604,3274.06,156,34.97
2020-10-14 18:24:22 UTC,county,Idaho,Adams,"Adams, Idaho, US",16003,44.89333571,-116.4545247,Non-core,4019.0,30,746.45,2,49.76
2020-10-14 18:24:22 UTC,county,Idaho,Bannock,"Bannock, Idaho, US",16005,42.67002716,-112.2233311,Small metro,85065.0,1479,1738.67,8,9.4
2020-10-14 18:24:22 UTC,county,Idaho,Bear Lake,"Bear Lake, Idaho, US",16007,42.28269683,-111.3289238,Non-core,5962.0,53,888.96,1,16.77
2020-10-14 18:24:22 UTC,county,Idaho,Benewah,"Benewah, Idaho, US",16009,47.21754179,-116.6586851,Non-core,9086.0,162,1782.96,3,33.02
2020-10-14 18:24:22 UTC,county,Idaho,Bingham,"Bingham, Idaho, US",16011,43.2167288,-112.3978437,Micropolitan,45551.0,1158,2542.21,10,21.95
2020-10-14 18:24:22 UTC,county,Idaho,Blaine,"Blaine, Idaho, US",16013,43.4085812,-113.9752658,Micropolitan,21994.0,775,3523.69,6,27.28
2020-10-14 18:24:22 UTC,county,Idaho,Boise,"Boise, Idaho, US",16015,43.98829931,-115.7309284,Medium metro,7163.0,74,1033.09,2,27.92
2020-10-14 18:24:22 UTC,county,Idaho,Bonner,"Bonner, Idaho, US",16017,48.29996017,-116.6017932,Micropolitan,42711.0,404,945.89,0,0.0
2020-10-14 18:24:22 UTC,county,Idaho,Bonneville,"Bonneville, Idaho, US",16019,43.38713372,-111.6161537,Small metro,112397.0,3526,3137.09,21,18.68
2020-10-14 18:24:22 UTC,county,Idaho,Boundary,"Boundary, Idaho, US",16021,48.76684761,-116.4630179,Non-core,11549.0,71,614.77,1,8.66
2020-10-14 18:24:22 UTC,county,Idaho,Butte,"Butte, Idaho, US",16023,43.72592209,-113.1735463,Small metro,2602.0,51,1960.03,0,0.0
2020-10-14 18:24:22 UTC,county,Idaho,Camas,"Camas, Idaho, US",16025,43.46665742,-114.8065892,Micropolitan,886.0,38,4288.94,0,0.0
2020-10-14 18:24:22 UTC,county,Idaho,Canyon,"Canyon, Idaho, US",16027,43.61970148,-116.7095499,Medium metro,212230.0,8872,4180.37,104,49.0
2020-10-14 18:24:22 UTC,county,Idaho,Caribou,"Caribou, Idaho, US",16029,42.77149116,-111.5597683,Non-core,6918.0,156,2254.99,2,28.91
2020-10-14 18:24:22 UTC,county,Idaho,Cassia,"Cassia, Idaho, US",16031,42.28347888,-113.6012409,Micropolitan,23615.0,984,4166.84,8,33.88
2020-10-14 18:24:22 UTC,county,Idaho,Clark,"Clark, Idaho, US",16033,44.28496071,-112.3505704,Non-core,1077.0,39,3621.17,0,0.0
2020-10-14 18:24:22 UTC,county,Idaho,Clearwater,"Clearwater, Idaho, US",16035,46.67459924,-115.6622393,Non-core,8640.0,108,1250.0,0,0.0
2020-10-14 18:24:22 UTC,county,Idaho,Custer,"Custer, Idaho, US",16037,44.24186819,-114.2855494,Non-core,4141.0,79,1907.75,1,24.15
2020-10-14 18:24:22 UTC,county,Idaho,Elmore,"Elmore, Idaho, US",16039,43.3507101,-115.4701578,Micropolitan,26433.0,420,1588.92,4,15.13
2020-10-14 18:24:22 UTC,county,Idaho,Franklin,"Franklin, Idaho, US",16041,42.18332217,-111.8149666,Small metro,13279.0,203,1528.73,1,7.53
2020-10-14 18:24:22 UTC,county,Idaho,Fremont,"Fremont, Idaho, US",16043,44.22800938,-111.4809943,Micropolitan,12965.0,307,2367.91,3,23.14
2020-10-14 18:24:22 UTC,county,Idaho,Gem,"Gem, Idaho, US",16045,44.06482372,-116.398376,Medium metro,17052.0,363,2128.78,4,23.46
2020-10-14 18:24:22 UTC,county,Idaho,Gooding,"Gooding, Idaho, US",16047,42.96927962,-114.8108306,Non-core,15169.0,391,2577.63,2,13.18
2020-10-14 18:24:22 UTC,county,Idaho,Idaho,"Idaho, Idaho, US",16049,45.84721541,-115.4634436,Non-core,16337.0,260,1591.48,0,0.0
2020-10-14 18:24:22 UTC,county,Idaho,Jefferson,"Jefferson, Idaho, US",16051,43.82078483,-112.3131749,Small metro,27969.0,770,2753.05,3,10.73
2020-10-14 18:24:22 UTC,county,Idaho,Jerome,"Jerome, Idaho, US",16053,42.68891267,-114.2655033,Micropolitan,23431.0,898,3832.53,7,29.87
2020-10-14 18:24:22 UTC,county,Idaho,Kootenai,"Kootenai, Idaho, US",16055,47.67282258,-116.7020872,Small metro,153605.0,3105,2021.42,44,28.64
2020-10-14 18:24:22 UTC,county,Idaho,Latah,"Latah, Idaho, US",16057,46.81587887,-116.7113698,Micropolitan,39239.0,748,1906.27,0,0.0
2020-10-14 18:24:22 UTC,county,Idaho,Lemhi,"Lemhi, Idaho, US",16059,44.9438088,-113.9309747,Non-core,7798.0,143,1833.8,0,0.0
2020-10-14 18:24:22 UTC,county,Idaho,Lewis,"Lewis, Idaho, US",16061,46.23315327,-116.434146,Non-core,3845.0,53,1378.41,2,52.02
2020-10-14 18:24:22 UTC,county,Idaho,Lincoln,"Lincoln, Idaho, US",16063,43.0012336,-114.1358773,Micropolitan,5321.0,117,2198.83,0,0.0
2020-10-14 18:24:22 UTC,county,Idaho,Madison,"Madison, Idaho, US",16065,43.78141028,-111.6538474,Micropolitan,38705.0,1685,4353.44,2,5.17
2020-10-14 18:24:22 UTC,county,Idaho,Minidoka,"Minidoka, Idaho, US",16067,42.85518524,-113.6357257,Micropolitan,20615.0,912,4423.96,8,38.81
2020-10-14 18:24:22 UTC,county,Idaho,Nez Perce,"Nez Perce, Idaho, US",16069,46.32638236,-116.7500975,Small metro,40155.0,554,1379.65,24,59.77
2020-10-14 18:24:22 UTC,county,Idaho,Oneida,"Oneida, Idaho, US",16071,42.1949428,-112.5407838,Non-core,4326.0,29,670.37,0,0.0
2020-10-14 18:24:22 UTC,county,Idaho,Owyhee,"Owyhee, Idaho, US",16073,42.58016894,-116.1693871,Medium metro,11455.0,358,3125.27,5,43.65
2020-10-14 18:24:22 UTC,county,Idaho,Payette,"Payette, Idaho, US",16075,44.00545243,-116.7647695,Micropolitan,23041.0,1021,4431.23,9,39.06
2020-10-14 18:24:22 UTC,county,Idaho,Power,"Power, Idaho, US",16077,42.69254894,-112.8395742,Non-core,7713.0,308,3993.26,1,12.97
2020-10-14 18:24:22 UTC,county,Idaho,Shoshone,"Shoshone, Idaho, US",16079,47.35364087,-115.8916749,Non-core,12526.0,220,1756.35,18,143.7
2020-10-14 18:24:22 UTC,county,Idaho,Teton,"Teton, Idaho, US",16081,43.75303583,-111.2056773,Micropolitan,11080.0,236,2129.96,1,9.03
2020-10-14 18:24:22 UTC,county,Idaho,Twin Falls,"Twin Falls, Idaho, US",16083,42.35440512,-114.6685381,Micropolitan,83666.0,2970,3549.83,41,49.0
2020-10-14 18:24:22 UTC,county,Idaho,Valley,"Valley, Idaho, US",16085,44.76728382,-115.5676773,Non-core,10401.0,105,1009.52,1,9.61
2020-10-14 18:24:22 UTC,county,Idaho,Washington,"Washington, Idaho, US",16087,44.45275475,-116.7847688,Non-core,10025.0,408,4069.83,7,69.83
2020-10-14 18:24:22 UTC,county,Illinois,Adams,"Adams, Illinois, US",17001,39.98815591,-91.18786813,Micropolitan,66427.0,1458,2194.89,13,19.57
2020-10-14 18:24:22 UTC,county,Illinois,Alexander,"Alexander, Illinois, US",17003,37.18049267,-89.32910838,Small metro,6532.0,102,1561.54,1,15.31
2020-10-14 18:24:22 UTC,county,Illinois,Bond,"Bond, Illinois, US",17005,38.88829622,-89.43534887,Large fringe metro,16712.0,405,2423.41,9,53.85
2020-10-14 18:24:22 UTC,county,Illinois,Boone,"Boone, Illinois, US",17007,42.32359279,-88.82345779,Medium metro,53606.0,1491,2781.41,24,44.77
2020-10-14 18:24:22 UTC,county,Illinois,Brown,"Brown, Illinois, US",17009,39.96209138,-90.75068024,Non-core,6675.0,82,1228.46,0,0.0
2020-10-14 18:24:22 UTC,county,Illinois,Bureau,"Bureau, Illinois, US",17011,41.40385234,-89.5283051,Micropolitan,33381.0,799,2393.58,15,44.94
2020-10-14 18:24:22 UTC,county,Illinois,Calhoun,"Calhoun, Illinois, US",17013,39.16840183,-90.66330078,Large fringe metro,4858.0,66,1358.58,0,0.0
2020-10-14 18:24:22 UTC,county,Illinois,Carroll,"Carroll, Illinois, US",17015,42.06823429,-89.93395545,Non-core,14562.0,293,2012.09,6,41.2
2020-10-14 18:24:22 UTC,county,Illinois,Cass,"Cass, Illinois, US",17017,39.96991073,-90.24734436,Non-core,12665.0,435,3434.66,11,86.85
2020-10-14 18:24:22 UTC,county,Illinois,Champaign,"Champaign, Illinois, US",17019,40.13919438,-88.20046615,Small metro,209448.0,5525,2637.89,27,12.89
2020-10-14 18:24:22 UTC,county,Illinois,Christian,"Christian, Illinois, US",17021,39.54581621,-89.27780482,Micropolitan,33231.0,724,2178.69,22,66.2
2020-10-14 18:24:22 UTC,county,Illinois,Clark,"Clark, Illinois, US",17023,39.33425789,-87.78705622,Non-core,15836.0,240,1515.53,4,25.26
2020-10-14 18:24:22 UTC,county,Illinois,Clay,"Clay, Illinois, US",17025,38.75388572,-88.48914513,Non-core,13338.0,259,1941.82,6,44.98
2020-10-14 18:24:22 UTC,county,Illinois,Clinton,"Clinton, Illinois, US",17027,38.60704876,-89.42385254,Large fringe metro,37628.0,1452,3858.83,23,61.12
2020-10-14 18:24:22 UTC,county,Illinois,Coles,"Coles, Illinois, US",17029,39.51949084,-88.22358557,Micropolitan,51736.0,1676,3239.52,38,73.45
2020-10-14 18:24:22 UTC,county,Illinois,Cook,"Cook, Illinois, US",17031,41.84144849,-87.81658794,Large central metro,5223719.0,157573,3016.49,5321,101.86
2020-10-14 18:24:22 UTC,county,Illinois,Crawford,"Crawford, Illinois, US",17033,39.0032229,-87.75954624,Non-core,19088.0,589,3085.71,6,31.43
2020-10-14 18:24:22 UTC,county,Illinois,Cumberland,"Cumberland, Illinois, US",17035,39.27432424,-88.2401158,Micropolitan,10865.0,241,2218.13,5,46.02
2020-10-14 18:24:22 UTC,county,Illinois,De Witt,"De Witt, Illinois, US",17039,40.17514519,-88.90959682,Small metro,16042.0,209,1302.83,3,18.7
2020-10-14 18:24:22 UTC,county,Illinois,DeKalb,"DeKalb, Illinois, US",17037,41.89373302,-88.76958483,Large fringe metro,104200.0,1941,1862.76,42,40.31
2020-10-14 18:24:22 UTC,county,Illinois,Douglas,"Douglas, Illinois, US",17041,39.76768052,-88.21854195,Non-core,19714.0,420,2130.47,8,40.58
2020-10-14 18:24:22 UTC,county,Illinois,DuPage,"DuPage, Illinois, US",17043,41.85116968,-88.08642662,Large fringe metro,931743.0,19767,2121.51,588,63.11
2020-10-14 18:24:22 UTC,county,Illinois,Edgar,"Edgar, Illinois, US",17045,39.6809186,-87.74759563,Non-core,17539.0,133,758.31,8,45.61
2020-10-14 18:24:22 UTC,county,Illinois,Edwards,"Edwards, Illinois, US",17047,38.41353228,-88.05720863,Non-core,6507.0,84,1290.92,0,0.0
2020-10-14 18:24:22 UTC,county,Illinois,Effingham,"Effingham, Illinois, US",17049,39.05935711,-88.58969584,Micropolitan,34174.0,1014,2967.17,3,8.78
2020-10-14 18:24:22 UTC,county,Illinois,Fayette,"Fayette, Illinois, US",17051,39.00072038,-89.02452658,Non-core,21724.0,574,2642.24,15,69.05
2020-10-14 18:24:22 UTC,county,Illinois,Ford,"Ford, Illinois, US",17053,40.59706922,-88.22350769,Small metro,13398.0,159,1186.74,7,52.25
2020-10-14 18:24:22 UTC,county,Illinois,Franklin,"Franklin, Illinois, US",17055,37.99189086,-88.92567818,Non-core,39127.0,711,1817.16,6,15.33
2020-10-14 18:24:22 UTC,county,Illinois,Fulton,"Fulton, Illinois, US",17057,40.47289135,-90.20862357,Micropolitan,35418.0,321,906.32,0,0.0
2020-10-14 18:24:22 UTC,county,Illinois,Gallatin,"Gallatin, Illinois, US",17059,37.76430935,-88.22953869,Non-core,5157.0,94,1822.77,2,38.78
2020-10-14 18:24:22 UTC,county,Illinois,Greene,"Greene, Illinois, US",17061,39.35907414,-90.388865,Non-core,13218.0,250,1891.36,15,113.48
2020-10-14 18:24:22 UTC,county,Illinois,Grundy,"Grundy, Illinois, US",17063,41.28569601,-88.41905692,Large fringe metro,50509.0,808,1599.71,7,13.86
2020-10-14 18:24:22 UTC,county,Illinois,Hamilton,"Hamilton, Illinois, US",17065,38.08163641,-88.53883373,Non-core,8221.0,97,1179.91,2,24.33
2020-10-14 18:24:22 UTC,county,Illinois,Hancock,"Hancock, Illinois, US",17067,40.40423981,-91.16313899,Micropolitan,18112.0,259,1429.99,3,16.56
2020-10-14 18:24:22 UTC,county,Illinois,Hardin,"Hardin, Illinois, US",17069,37.51810645,-88.26873022,Non-core,4009.0,47,1172.36,0,0.0
2020-10-14 18:24:22 UTC,county,Illinois,Henderson,"Henderson, Illinois, US",17071,40.81908672,-90.92491462,Micropolitan,6884.0,93,1350.96,0,0.0
2020-10-14 18:24:22 UTC,county,Illinois,Henry,"Henry, Illinois, US",17073,41.3533994,-90.13296166,Medium metro,49464.0,764,1544.56,5,10.11
2020-10-14 18:24:22 UTC,county,Illinois,Iroquois,"Iroquois, Illinois, US",17075,40.74717633,-87.82466784,Non-core,28169.0,431,1530.05,19,67.45
2020-10-14 18:24:22 UTC,county,Illinois,Jackson,"Jackson, Illinois, US",17077,37.78595185,-89.38232563,Small metro,58551.0,1367,2334.72,24,40.99
2020-10-14 18:24:22 UTC,county,Illinois,Jasper,"Jasper, Illinois, US",17079,39.01054275,-88.15437049,Non-core,9598.0,231,2406.75,10,104.19
2020-10-14 18:24:22 UTC,county,Illinois,Jefferson,"Jefferson, Illinois, US",17081,38.29980057,-88.9240025,Micropolitan,38169.0,804,2106.42,40,104.8
2020-10-14 18:24:22 UTC,county,Illinois,Jersey,"Jersey, Illinois, US",17083,39.08869046,-90.35393073,Large fringe metro,22069.0,435,1971.09,21,95.16
2020-10-14 18:24:22 UTC,county,Illinois,Jo Daviess,"Jo Daviess, Illinois, US",17085,42.36542373,-90.21094405,Non-core,21834.0,374,1712.92,3,13.74
2020-10-14 18:24:22 UTC,county,Illinois,Johnson,"Johnson, Illinois, US",17087,37.45939802,-88.88165419,Non-core,12602.0,279,2213.93,0,0.0
2020-10-14 18:24:22 UTC,county,Illinois,Kane,"Kane, Illinois, US",17089,41.93842729,-88.42861412,Large fringe metro,530839.0,14558,2742.45,336,63.3
2020-10-14 18:24:22 UTC,county,Illinois,Kankakee,"Kankakee, Illinois, US",17091,41.13746989,-87.86205334,Small metro,111061.0,3019,2718.33,78,70.23
2020-10-14 18:24:22 UTC,county,Illinois,Kendall,"Kendall, Illinois, US",17093,41.59081014,-88.42869583,Large fringe metro,124626.0,2315,1857.56,26,20.86
2020-10-14 18:24:22 UTC,county,Illinois,Knox,"Knox, Illinois, US",17095,40.93148779,-90.2133034,Micropolitan,50999.0,937,1837.29,8,15.69
2020-10-14 18:24:22 UTC,county,Illinois,LaSalle,"LaSalle, Illinois, US",17099,41.3442613,-88.88633881,Micropolitan,110401.0,2041,1848.72,58,52.54
2020-10-14 18:24:22 UTC,county,Illinois,Lake,"Lake, Illinois, US",17097,42.3224907,-88.00367925,Large fringe metro,703619.0,18633,2648.17,499,70.92
2020-10-14 18:24:22 UTC,county,Illinois,Lawrence,"Lawrence, Illinois, US",17101,38.71987914,-87.72884035,Non-core,16189.0,293,1809.87,6,37.06
2020-10-14 18:24:22 UTC,county,Illinois,Lee,"Lee, Illinois, US",17103,41.74583951,-89.29977132,Micropolitan,34527.0,525,1520.55,1,2.9
2020-10-14 18:24:22 UTC,county,Illinois,Livingston,"Livingston, Illinois, US",17105,40.89188292,-88.55784752,Micropolitan,36324.0,489,1346.22,9,24.78
2020-10-14 18:24:22 UTC,county,Illinois,Logan,"Logan, Illinois, US",17107,40.12581572,-89.36638784,Micropolitan,29207.0,518,1773.55,4,13.7
2020-10-14 18:24:22 UTC,county,Illinois,Macon,"Macon, Illinois, US",17115,39.86064913,-88.96342505,Small metro,106512.0,2190,2056.11,48,45.07
2020-10-14 18:24:22 UTC,county,Illinois,Macoupin,"Macoupin, Illinois, US",17117,39.26119767,-89.92424028,Large fringe metro,45719.0,664,1452.35,8,17.5
2020-10-14 18:24:22 UTC,county,Illinois,Madison,"Madison, Illinois, US",17119,38.83042506,-89.90422563,Large fringe metro,265670.0,6499,2446.27,150,56.46
2020-10-14 18:24:22 UTC,county,Illinois,Marion,"Marion, Illinois, US",17121,38.64963204,-88.91899208,Micropolitan,38084.0,774,2032.35,8,21.01
2020-10-14 18:24:22 UTC,county,Illinois,Marshall,"Marshall, Illinois, US",17123,41.0327901,-89.34510444,Medium metro,11794.0,129,1093.78,3,25.44
2020-10-14 18:24:22 UTC,county,Illinois,Mason,"Mason, Illinois, US",17125,40.23917274,-89.91824452,Non-core,13778.0,215,1560.46,1,7.26
2020-10-14 18:24:22 UTC,county,Illinois,Massac,"Massac, Illinois, US",17127,37.22078441,-88.71036614,Micropolitan,14430.0,133,921.69,2,13.86
2020-10-14 18:24:22 UTC,county,Illinois,McDonough,"McDonough, Illinois, US",17109,40.45674722,-90.67775541,Micropolitan,30875.0,577,1868.83,15,48.58
2020-10-14 18:24:22 UTC,county,Illinois,McHenry,"McHenry, Illinois, US",17111,42.32451172,-88.45248227,Large fringe metro,307789.0,5248,1705.06,119,38.66
2020-10-14 18:24:22 UTC,county,Illinois,McLean,"McLean, Illinois, US",17113,40.48996987,-88.84621113,Small metro,173219.0,3746,2162.58,29,16.74
2020-10-14 18:24:22 UTC,county,Illinois,Menard,"Menard, Illinois, US",17129,40.02742725,-89.80246001,Small metro,12367.0,152,1229.08,1,8.09
2020-10-14 18:24:22 UTC,county,Illinois,Mercer,"Mercer, Illinois, US",17131,41.20596782,-90.74290052,Medium metro,15693.0,191,1217.1,6,38.23
2020-10-14 18:24:22 UTC,county,Illinois,Monroe,"Monroe, Illinois, US",17133,38.27594376,-90.17761038,Large fringe metro,33936.0,810,2386.85,27,79.56
2020-10-14 18:24:22 UTC,county,Illinois,Montgomery,"Montgomery, Illinois, US",17135,39.23198845,-89.47809254,Non-core,29009.0,496,1709.81,14,48.26
2020-10-14 18:24:22 UTC,county,Illinois,Morgan,"Morgan, Illinois, US",17137,39.71654544,-90.20255104,Micropolitan,34426.0,762,2213.44,24,69.71
2020-10-14 18:24:22 UTC,county,Illinois,Moultrie,"Moultrie, Illinois, US",17139,39.64187451,-88.62099969,Non-core,14703.0,295,2006.39,4,27.21
2020-10-14 18:24:22 UTC,county,Illinois,Ogle,"Ogle, Illinois, US",17141,42.04165196,-89.32184679,Micropolitan,51328.0,950,1850.84,6,11.69
2020-10-14 18:24:22 UTC,county,Illinois,Peoria,"Peoria, Illinois, US",17143,40.78702156,-89.76078901,Medium metro,184463.0,4030,2184.72,58,31.44
2020-10-14 18:24:22 UTC,county,Illinois,Perry,"Perry, Illinois, US",17145,38.08510853,-89.36856219,Non-core,21384.0,382,1786.38,16,74.82
2020-10-14 18:24:22 UTC,county,Illinois,Piatt,"Piatt, Illinois, US",17147,40.01360584,-88.59319339,Small metro,16427.0,183,1114.02,0,0.0
2020-10-14 18:24:22 UTC,county,Illinois,Pike,"Pike, Illinois, US",17149,39.62265059,-90.8877017,Non-core,15754.0,207,1313.95,2,12.7
2020-10-14 18:24:22 UTC,county,Illinois,Pope,"Pope, Illinois, US",17151,37.41391284,-88.56152109,Non-core,4249.0,36,847.26,1,23.53
2020-10-14 18:24:22 UTC,county,Illinois,Pulaski,"Pulaski, Illinois, US",17153,37.22631423,-89.13085001,Non-core,5611.0,218,3885.23,1,17.82
2020-10-14 18:24:22 UTC,county,Illinois,Putnam,"Putnam, Illinois, US",17155,41.2013541,-89.2869272,Micropolitan,5746.0,75,1305.26,0,0.0
2020-10-14 18:24:22 UTC,county,Illinois,Randolph,"Randolph, Illinois, US",17157,38.05095369,-89.82512254,Non-core,32546.0,1075,3303.02,14,43.02
2020-10-14 18:24:22 UTC,county,Illinois,Richland,"Richland, Illinois, US",17159,38.71240969,-88.08475366,Non-core,15881.0,296,1863.86,11,69.27
2020-10-14 18:24:22 UTC,county,Illinois,Rock Island,"Rock Island, Illinois, US",17161,41.46613806,-90.57042164,Medium metro,145275.0,3446,2372.05,85,58.51
2020-10-14 18:24:22 UTC,county,Illinois,Saline,"Saline, Illinois, US",17165,37.75332999,-88.54119706,Non-core,24231.0,457,1886.01,6,24.76
2020-10-14 18:24:22 UTC,county,Illinois,Sangamon,"Sangamon, Illinois, US",17167,39.75836914,-89.65872023,Small metro,197661.0,3154,1595.66,53,26.81
2020-10-14 18:24:22 UTC,county,Illinois,Schuyler,"Schuyler, Illinois, US",17169,40.1571798,-90.61114163,Non-core,7064.0,74,1047.57,1,14.16
2020-10-14 18:24:22 UTC,county,Illinois,Scott,"Scott, Illinois, US",17171,39.6429169,-90.47814431,Micropolitan,5047.0,84,1664.36,0,0.0
2020-10-14 18:24:22 UTC,county,Illinois,Shelby,"Shelby, Illinois, US",17173,39.39133527,-88.80611122,Non-core,21832.0,533,2441.37,7,32.06
2020-10-14 18:24:22 UTC,county,Illinois,St. Clair,"St. Clair, Illinois, US",17163,38.46996033,-89.93063427,Large fringe metro,263463.0,7330,2782.17,207,78.57
2020-10-14 18:24:22 UTC,county,Illinois,Stark,"Stark, Illinois, US",17175,41.09309773,-89.79745866,Medium metro,5500.0,72,1309.09,2,36.36
2020-10-14 18:24:22 UTC,county,Illinois,Stephenson,"Stephenson, Illinois, US",17177,42.35129217,-89.662598,Micropolitan,45433.0,712,1567.14,7,15.41
2020-10-14 18:24:22 UTC,county,Illinois,Tazewell,"Tazewell, Illinois, US",17179,40.50716185,-89.51404662,Medium metro,133852.0,2215,1654.81,44,32.87
2020-10-14 18:24:22 UTC,county,Illinois,Union,"Union, Illinois, US",17181,37.47119609,-89.25548938,Non-core,17127.0,683,3987.86,25,145.97
2020-10-14 18:24:22 UTC,county,Illinois,Vermilion,"Vermilion, Illinois, US",17183,40.18417171,-87.73384359,Small metro,78407.0,1361,1735.81,7,8.93
2020-10-14 18:24:22 UTC,county,Illinois,Wabash,"Wabash, Illinois, US",17185,38.44272901,-87.84922065,Non-core,11573.0,189,1633.11,4,34.56
2020-10-14 18:24:22 UTC,county,Illinois,Warren,"Warren, Illinois, US",17187,40.84925021,-90.6147432,Non-core,17338.0,414,2387.82,6,34.61
2020-10-14 18:24:22 UTC,county,Illinois,Washington,"Washington, Illinois, US",17189,38.35309213,-89.40982703,Non-core,14155.0,265,1872.13,1,7.06
2020-10-14 18:24:22 UTC,county,Illinois,Wayne,"Wayne, Illinois, US",17191,38.42955355,-88.42586459,Non-core,16487.0,397,2407.96,7,42.46
2020-10-14 18:24:22 UTC,county,Illinois,White,"White, Illinois, US",17193,38.08706198,-88.17657461,Non-core,14025.0,210,1497.33,1,7.13
2020-10-14 18:24:22 UTC,county,Illinois,Whiteside,"Whiteside, Illinois, US",17195,41.75509713,-89.91556058,Micropolitan,56396.0,1040,1844.1,21,37.24
2020-10-14 18:24:22 UTC,county,Illinois,Will,"Will, Illinois, US",17197,41.44619267,-87.97862712,Large fringe metro,688697.0,15888,2306.97,408,59.24
2020-10-14 18:24:22 UTC,county,Illinois,Williamson,"Williamson, Illinois, US",17199,37.73033511,-88.92994027,Small metro,67299.0,1601,2378.94,56,83.21
2020-10-14 18:24:22 UTC,county,Illinois,Winnebago,"Winnebago, Illinois, US",17201,42.33641854,-89.16085327,Medium metro,286174.0,8207,2867.84,161,56.26
2020-10-14 18:24:22 UTC,county,Illinois,Woodford,"Woodford, Illinois, US",17203,40.78579374,-89.20973757,Medium metro,38817.0,496,1277.79,10,25.76
2020-10-14 18:24:22 UTC,county,Indiana,Adams,"Adams, Indiana, US",18001,40.7457653,-84.93671406,Micropolitan,35195.0,405,1150.73,4,11.37
2020-10-14 18:24:22 UTC,county,Indiana,Allen,"Allen, Indiana, US",18003,41.09194313,-85.06800636,Medium metro,370016.0,7320,1978.29,213,57.57
2020-10-14 18:24:22 UTC,county,Indiana,Bartholomew,"Bartholomew, Indiana, US",18005,39.20744865,-85.89558181,Small metro,81893.0,1312,1602.09,57,69.6
2020-10-14 18:24:22 UTC,county,Indiana,Benton,"Benton, Indiana, US",18007,40.60626947,-87.31093999,Small metro,8667.0,95,1096.11,0,0.0
2020-10-14 18:24:22 UTC,county,Indiana,Blackford,"Blackford, Indiana, US",18009,40.47388153,-85.32499702,Non-core,12129.0,169,1393.35,3,24.73
